[
    {
        "ciudad": "AREQUIPA",
        "name": "FLORES TURPO LUCIA",
        "address": "HELBERT SAMALVIDES MZ B LT 6",
        "lat": "-16.6295",
        "lng": "-72.7139",
        "type": "BODEGA",
        "distrito": "CAMANA",
        "provincia": "AREQUIPA",
        "celda": "Base General"
    },
    {
        "ciudad": "AREQUIPA",
        "name": "CONCHA MEDINA GABRIELA ANTONIETA",
        "address": "JR 28 DE JULIO 701",
        "lat": "-16.6285",
        "lng": "-72.7123",
        "type": "BODEGA",
        "distrito": "CAMANA",
        "provincia": "AREQUIPA",
        "celda": "Base General"
    },
    {
        "ciudad": "AREQUIPA",
        "name": "CASTRO GARCIA ALEXIS EDUARDO",
        "address": "JR 28 DE JULIO 521",
        "lat": "-16.6263",
        "lng": "-72.7117",
        "type": "BODEGA",
        "distrito": "CAMANA",
        "provincia": "AREQUIPA",
        "celda": "Base General"
    },
    {
        "ciudad": "AREQUIPA",
        "name": "HUISACAINA CATORA ABDON",
        "address": "JR NAV ARRETE 242 COST COLEGIO DOMI",
        "lat": "-16.6258",
        "lng": "-72.7094",
        "type": "BODEGA",
        "distrito": "CAMANA",
        "provincia": "AREQUIPA",
        "celda": "Base General"
    },
    {
        "ciudad": "AREQUIPA",
        "name": "TORRES MONTALVO CARY CELIA",
        "address": "JR JUAN BAUTISTA NAVARRETE 315",
        "lat": "-16.6258",
        "lng": "-72.7091",
        "type": "MINIMARKET",
        "distrito": "CAMANA",
        "provincia": "AREQUIPA",
        "celda": "Base General"
    },
    {
        "ciudad": "AREQUIPA",
        "name": "GARCIA CATERIANO ANDRE RICARDO",
        "address": "CAFE PASTELERIA MAYA MARISCAL CASTI",
        "lat": "-16.6257",
        "lng": "-72.7106",
        "type": "PANADERIAS",
        "distrito": "CAMANA",
        "provincia": "AREQUIPA",
        "celda": "Base General"
    },
    {
        "ciudad": "AREQUIPA",
        "name": "CRUZ CONCHA CLARISA RUDMINI",
        "address": "JR PIEROLA 402 FRTE BOMBEROS",
        "lat": "-16.6252",
        "lng": "-72.7121",
        "type": "BODEGA",
        "distrito": "CAMANA",
        "provincia": "AREQUIPA",
        "celda": "Base General"
    },
    {
        "ciudad": "AREQUIPA",
        "name": "WEI SHENG S.A.C.",
        "address": "LT 26 MZ I CA ALFONSO UGARTE",
        "lat": "-16.6248",
        "lng": "-72.7106",
        "type": "MINIMARKET",
        "distrito": "CAMANA",
        "provincia": "AREQUIPA",
        "celda": "Base General"
    },
    {
        "ciudad": "AREQUIPA",
        "name": "CARNERO DE JAUREGUI ELSA LUPE",
        "address": "JR PIZARRO 253",
        "lat": "-16.6242",
        "lng": "-72.7093",
        "type": "BODEGA",
        "distrito": "CAMANA",
        "provincia": "AREQUIPA",
        "celda": "Base General"
    },
    {
        "ciudad": "AREQUIPA",
        "name": "RIVESA SERVICIOS INTEGRADOS S.A.C.",
        "address": "MARISCAL CASTILLA 156 COSTADO OLVACOURIER",
        "lat": "-16.6235",
        "lng": "-72.7098",
        "type": "BODEGA",
        "distrito": "CAMANA",
        "provincia": "AREQUIPA",
        "celda": "Base General"
    },
    {
        "ciudad": "AREQUIPA",
        "name": "RIEGA RIEGA JUAN AMILCAR",
        "address": "CA COMERCIO 232",
        "lat": "-16.6234",
        "lng": "-72.7119",
        "type": "BODEGA",
        "distrito": "CAMANA",
        "provincia": "AREQUIPA",
        "celda": "Base General"
    },
    {
        "ciudad": "AREQUIPA",
        "name": "HUAMANI PUMA VILMA",
        "address": "CA PIEROLA PANADERIA FROTY PAN",
        "lat": "-16.6232",
        "lng": "-72.7114",
        "type": "PANADERIAS",
        "distrito": "CAMANA",
        "provincia": "AREQUIPA",
        "celda": "Base General"
    },
    {
        "ciudad": "AREQUIPA",
        "name": "CADENA DE TIENDAS ESTRELLA E I R L",
        "address": "JR NICOLAS DE PIEROLA 122",
        "lat": "-16.6226",
        "lng": "-72.7112",
        "type": "MINIMARKET",
        "distrito": "CAMANA",
        "provincia": "AREQUIPA",
        "celda": "Base General"
    },
    {
        "ciudad": "AREQUIPA",
        "name": "SOLUCIONES MODERNAS APLICADAS ALA R",
        "address": "AV CAMANA SN",
        "lat": "-16.6226",
        "lng": "-72.7082",
        "type": "BODEGA",
        "distrito": "CAMANA",
        "provincia": "AREQUIPA",
        "celda": "Base General"
    },
    {
        "ciudad": "AREQUIPA",
        "name": "YCHOCAN SANDOVAL ANA MILE",
        "address": "JR QUILCA 141",
        "lat": "-16.6224",
        "lng": "-72.7107",
        "type": "BODEGA",
        "distrito": "CAMANA",
        "provincia": "AREQUIPA",
        "celda": "Base General"
    },
    {
        "ciudad": "AREQUIPA",
        "name": "CHIRINOS CRUZ JOSE LUCIANO",
        "address": "AV QUILCA 139",
        "lat": "-16.6224",
        "lng": "-72.7107",
        "type": "BODEGA",
        "distrito": "CAMANA",
        "provincia": "AREQUIPA",
        "celda": "Base General"
    },
    {
        "ciudad": "AREQUIPA",
        "name": "COMERCIALIZADORA DE PRODUCTOS ALIME",
        "address": "JR PROLONGAC QUILCA 201203 201",
        "lat": "-16.6223",
        "lng": "-72.7111",
        "type": "BODEGA",
        "distrito": "CAMANA",
        "provincia": "AREQUIPA",
        "celda": "Base General"
    },
    {
        "ciudad": "AREQUIPA",
        "name": "CRUZ RAMIREZ TERESA NILDA",
        "address": "CA QUILCA MCDO CENTRAL TIENDA 30",
        "lat": "-16.6221",
        "lng": "-72.7112",
        "type": "BODEGA",
        "distrito": "CAMANA",
        "provincia": "AREQUIPA",
        "celda": "Base General"
    },
    {
        "ciudad": "AREQUIPA",
        "name": "GOMEZ CARRASCO ELENA GLADYS",
        "address": "SEBASTIÁN BARRANCA SN FRENTEA A COMERCIAL BIYI",
        "lat": "-16.6216",
        "lng": "-72.7108",
        "type": "BODEGA",
        "distrito": "CAMANA",
        "provincia": "AREQUIPA",
        "celda": "Base General"
    },
    {
        "ciudad": "AREQUIPA",
        "name": "ESPINO LINARES MILAGROS",
        "address": "PROL OCONA 136",
        "lat": "-16.6216",
        "lng": "-72.7103",
        "type": "BODEGA",
        "distrito": "CAMANA",
        "provincia": "AREQUIPA",
        "celda": "Base General"
    },
    {
        "ciudad": "AREQUIPA",
        "name": "GABINA DOMITILA FLORES SOLIS",
        "address": "PROLONGACION MARISCAL CASTILLO 116",
        "lat": "-16.6216",
        "lng": "-72.7091",
        "type": "BODEGA",
        "distrito": "CAMANA",
        "provincia": "AREQUIPA",
        "celda": "Base General"
    },
    {
        "ciudad": "AREQUIPA",
        "name": "INVERSIONES H&R DEL SUR E.I.R.L.",
        "address": "JR SEBASTIAN BARRANCA 230",
        "lat": "-16.6215",
        "lng": "-72.7108",
        "type": "BODEGA",
        "distrito": "CAMANA",
        "provincia": "AREQUIPA",
        "celda": "Base General"
    },
    {
        "ciudad": "AREQUIPA",
        "name": "MONTAÑEZ MAMANI ERIKA FRANCHESKA",
        "address": "JR OCOÑA 150",
        "lat": "-16.6215",
        "lng": "-72.7104",
        "type": "BODEGA",
        "distrito": "CAMANA",
        "provincia": "AREQUIPA",
        "celda": "Base General"
    },
    {
        "ciudad": "AREQUIPA",
        "name": "QUISPE VIZCARRA ANGIE VICTORIA",
        "address": "PROL OCOÑA FRENTE A MI FARMA",
        "lat": "-16.6215",
        "lng": "-72.7101",
        "type": "BODEGA",
        "distrito": "CAMANA",
        "provincia": "AREQUIPA",
        "celda": "Base General"
    },
    {
        "ciudad": "AREQUIPA",
        "name": "HUAMANI ESCALANTE DE SILVA FIORELA",
        "address": "PROLONG OCOÑA 201",
        "lat": "-16.6214",
        "lng": "-72.7109",
        "type": "BODEGA",
        "distrito": "CAMANA",
        "provincia": "AREQUIPA",
        "celda": "Base General"
    },
    {
        "ciudad": "AREQUIPA",
        "name": "ABANTO GARBICH JOSEPH RICARDO",
        "address": "JR SAMUEL PASTOR 302",
        "lat": "-16.6214",
        "lng": "-72.7077",
        "type": "BODEGA",
        "distrito": "CAMANA",
        "provincia": "AREQUIPA",
        "celda": "Base General"
    },
    {
        "ciudad": "AREQUIPA",
        "name": "CHOQUEHUANCA CATARI MIGUEL RAFAEL",
        "address": "PROL OCONA 206",
        "lat": "-16.6213",
        "lng": "-72.711",
        "type": "BODEGA",
        "distrito": "CAMANA",
        "provincia": "AREQUIPA",
        "celda": "Base General"
    },
    {
        "ciudad": "AREQUIPA",
        "name": "VILLA BELTRAN DAVID ROSENDO",
        "address": "JR SEBASTIAN BARRANCA 239",
        "lat": "-16.6211",
        "lng": "-72.7106",
        "type": "BODEGA",
        "distrito": "CAMANA",
        "provincia": "AREQUIPA",
        "celda": "Base General"
    },
    {
        "ciudad": "AREQUIPA",
        "name": "CURI PANUERA DORA TEODOCIA",
        "address": "JR SAMUEL PASTOR 136",
        "lat": "-16.6211",
        "lng": "-72.7089",
        "type": "BODEGA",
        "distrito": "CAMANA",
        "provincia": "AREQUIPA",
        "celda": "Base General"
    },
    {
        "ciudad": "AREQUIPA",
        "name": "ALVARES CHAYA YOLY",
        "address": "JR SEBASTIÁN BARRANCA 230 FTE CARSA",
        "lat": "-16.621",
        "lng": "-72.7105",
        "type": "BODEGA",
        "distrito": "CAMANA",
        "provincia": "AREQUIPA",
        "celda": "Base General"
    },
    {
        "ciudad": "AREQUIPA",
        "name": "SOLIS HUAMANI CLARA MARGARITA",
        "address": "AV SEBASTIAN BARRANCA FRENTE A PURINA",
        "lat": "-16.621",
        "lng": "-72.7105",
        "type": "BODEGA",
        "distrito": "CAMANA",
        "provincia": "AREQUIPA",
        "celda": "Base General"
    },
    {
        "ciudad": "AREQUIPA",
        "name": "PUMA CHIRINOS KATHERINE",
        "address": "AV LIMA 370",
        "lat": "-16.62",
        "lng": "-72.7092",
        "type": "BODEGA",
        "distrito": "CAMANA",
        "provincia": "AREQUIPA",
        "celda": "Base General"
    },
    {
        "ciudad": "AREQUIPA",
        "name": "BUSTINZA CAMARGO CARMEN SARA",
        "address": "AV LIMA 386",
        "lat": "-16.6199",
        "lng": "-72.7091",
        "type": "BODEGA",
        "distrito": "CAMANA",
        "provincia": "AREQUIPA",
        "celda": "Base General"
    },
    {
        "ciudad": "AREQUIPA",
        "name": "ALVAREZ GALDOS",
        "address": "JR GARCI CARBAJAL 117",
        "lat": "-16.6199",
        "lng": "-72.7086",
        "type": "BODEGA",
        "distrito": "CAMANA",
        "provincia": "AREQUIPA",
        "celda": "Base General"
    },
    {
        "ciudad": "AREQUIPA",
        "name": "CARPIO SIERRA JENNIFER ANYELA",
        "address": "JR GARCI CARBAJAL 107",
        "lat": "-16.6198",
        "lng": "-72.7088",
        "type": "MINIMARKET",
        "distrito": "CAMANA",
        "provincia": "AREQUIPA",
        "celda": "Base General"
    },
    {
        "ciudad": "AREQUIPA",
        "name": "VIZCARRA ARIAS EDGAR FREDY",
        "address": "MANCO CAPAC 212",
        "lat": "-16.6198",
        "lng": "-72.7078",
        "type": "BODEGA",
        "distrito": "CAMANA",
        "provincia": "AREQUIPA",
        "celda": "Base General"
    },
    {
        "ciudad": "AREQUIPA",
        "name": "CHARCAHUANA CCOROPUNA REYNA",
        "address": "AV CAMANA 1120",
        "lat": "-16.6195",
        "lng": "-72.707",
        "type": "BODEGA",
        "distrito": "CAMANA",
        "provincia": "AREQUIPA",
        "celda": "Base General"
    },
    {
        "ciudad": "AREQUIPA",
        "name": "AYMACHOQUE CUMPA EPIFANIA",
        "address": "AV CAMANA 1540",
        "lat": "-16.6193",
        "lng": "-72.7071",
        "type": "BODEGA",
        "distrito": "CAMANA",
        "provincia": "AREQUIPA",
        "celda": "Base General"
    },
    {
        "ciudad": "AREQUIPA",
        "name": "DIAZ CARDENAS LEYDI JESSICA",
        "address": "JR FRANCISCO BOLOGNESI 180 CAMANA",
        "lat": "-16.6183",
        "lng": "-72.7097",
        "type": "BODEGA",
        "distrito": "CAMANA",
        "provincia": "AREQUIPA",
        "celda": "Base General"
    },
    {
        "ciudad": "AREQUIPA",
        "name": "AMESQUITA SANCHEZ UBERLINDA EUFRACI",
        "address": "AV CAMANA 824",
        "lat": "-16.6179",
        "lng": "-72.7066",
        "type": "BODEGA",
        "distrito": "CAMANA",
        "provincia": "AREQUIPA",
        "celda": "Base General"
    },
    {
        "ciudad": "AREQUIPA",
        "name": "CATARI MAMANI MARIA VICTORIA",
        "address": "AV CAMANA 886",
        "lat": "-16.6171",
        "lng": "-72.7067",
        "type": "BODEGA",
        "distrito": "CAMANA",
        "provincia": "AREQUIPA",
        "celda": "Base General"
    },
    {
        "ciudad": "AREQUIPA",
        "name": "MAMANI DE NINAHUAMAN TEODORA",
        "address": "AV CAMANA 1757",
        "lat": "-16.6165",
        "lng": "-72.7068",
        "type": "BODEGA",
        "distrito": "CAMANA",
        "provincia": "AREQUIPA",
        "celda": "Base General"
    },
    {
        "ciudad": "AREQUIPA",
        "name": "APAZA SUMI ERICA ARACELI",
        "address": "AV LIMA 730",
        "lat": "-16.6156",
        "lng": "-72.7074",
        "type": "BODEGA",
        "distrito": "CAMANA",
        "provincia": "AREQUIPA",
        "celda": "Base General"
    },
    {
        "ciudad": "AREQUIPA",
        "name": "MARTINEZ AREVALO IDA AIDEE",
        "address": "AV SAMUEL PASTOR 208",
        "lat": "-16.6156",
        "lng": "-72.6976",
        "type": "BODEGA",
        "distrito": "SAMUEL PASTOR",
        "provincia": "AREQUIPA",
        "celda": "Base General"
    },
    {
        "ciudad": "AREQUIPA",
        "name": "DAVILA DELGADO JULISSA YESENIA",
        "address": "AV SAMUEL PASTOR 221 LA PAMPA",
        "lat": "-16.6152",
        "lng": "-72.6979",
        "type": "BODEGA",
        "distrito": "SAMUEL PASTOR",
        "provincia": "AREQUIPA",
        "celda": "Base General"
    },
    {
        "ciudad": "AREQUIPA",
        "name": "CARAPI NUA NILDA NAYSE",
        "address": "VILLA JARDIN FRENTE A A14 CASA MORADA",
        "lat": "-16.615",
        "lng": "-72.7085",
        "type": "BODEGA",
        "distrito": "CAMANA",
        "provincia": "AREQUIPA",
        "celda": "Base General"
    },
    {
        "ciudad": "AREQUIPA",
        "name": "ALMONTE TORRES CRISTINA ELIZABETH",
        "address": "LAS ORQUIDEAS 302 B",
        "lat": "-16.615",
        "lng": "-72.6976",
        "type": "BODEGA",
        "distrito": "SAMUEL PASTOR",
        "provincia": "AREQUIPA",
        "celda": "Base General"
    },
    {
        "ciudad": "AREQUIPA",
        "name": "QUISPE DURAN CLOTILDE",
        "address": "VILLA BEGAZO SN",
        "lat": "-16.6148",
        "lng": "-72.7052",
        "type": "BODEGA",
        "distrito": "CAMANA",
        "provincia": "AREQUIPA",
        "celda": "Base General"
    },
    {
        "ciudad": "AREQUIPA",
        "name": "ROMERO CONDORI DIANA CECILIA",
        "address": "LA PAMPA LAS FLORES 106",
        "lat": "-16.6132",
        "lng": "-72.6981",
        "type": "BODEGA",
        "distrito": "SAMUEL PASTOR",
        "provincia": "AREQUIPA",
        "celda": "Base General"
    },
    {
        "ciudad": "AREQUIPA",
        "name": "LEONARDA VITORINO QUISPE",
        "address": "JR LOS OLIVOS 142 ESQ LA PAMPA",
        "lat": "-16.6131",
        "lng": "-72.6975",
        "type": "BODEGA",
        "distrito": "SAMUEL PASTOR",
        "provincia": "AREQUIPA",
        "celda": "Base General"
    },
    {
        "ciudad": "AREQUIPA",
        "name": "QUISPE BERNAL VICTORIA YALA",
        "address": "AV LIMA 907 ENTRADA LA PAMPA HOSPEDAJE",
        "lat": "-16.613",
        "lng": "-72.7064",
        "type": "BODEGA",
        "distrito": "SAMUEL PASTOR",
        "provincia": "AREQUIPA",
        "celda": "Base General"
    },
    {
        "ciudad": "AREQUIPA",
        "name": "ALCCA CCAHUA OLIVIA",
        "address": "CA PORVENIR 105",
        "lat": "-16.6124",
        "lng": "-72.6968",
        "type": "BODEGA",
        "distrito": "SAMUEL PASTOR",
        "provincia": "AREQUIPA",
        "celda": "Base General"
    },
    {
        "ciudad": "AREQUIPA",
        "name": "QUISPE ILLA CARMEN GEORGINA",
        "address": "EL PORVENIR 109 LA PAMPA SAMUEL PAS",
        "lat": "-16.6122",
        "lng": "-72.6969",
        "type": "BODEGA",
        "distrito": "SAMUEL PASTOR",
        "provincia": "AREQUIPA",
        "celda": "Base General"
    },
    {
        "ciudad": "AREQUIPA",
        "name": "CHAHUA QUISPE CLOTILDE",
        "address": "LA PLANICIE D 10",
        "lat": "-16.6096",
        "lng": "-72.6993",
        "type": "BODEGA",
        "distrito": "SAMUEL PASTOR",
        "provincia": "AREQUIPA",
        "celda": "Base General"
    },
    {
        "ciudad": "AREQUIPA",
        "name": "JIMENEZ LAYME JUAN FRANCISCO",
        "address": "AV SAMUEL PASTOR 1006 EL CARMEN FRE",
        "lat": "-16.6048",
        "lng": "-72.7005",
        "type": "BODEGA",
        "distrito": "SAMUEL PASTOR",
        "provincia": "AREQUIPA",
        "celda": "Base General"
    },
    {
        "ciudad": "AREQUIPA",
        "name": "BERRIOS APAZA MARICIELO CELESTE",
        "address": "AV SAMUEL PASTOR 1013 EL CARMEN",
        "lat": "-16.6047",
        "lng": "-72.7008",
        "type": "BODEGA",
        "distrito": "CAMANA",
        "provincia": "AREQUIPA",
        "celda": "Base General"
    },
    {
        "ciudad": "AREQUIPA",
        "name": "JIMENEZ COLQUE MARIA BELEN MILAGROS",
        "address": "AV SAMUEL PASTOR 1006",
        "lat": "-16.6047",
        "lng": "-72.7006",
        "type": "BODEGA",
        "distrito": "CAMANA",
        "provincia": "AREQUIPA",
        "celda": "Base General"
    },
    {
        "ciudad": "AREQUIPA",
        "name": "CONDORI CUADROS MARIA LAURA",
        "address": "AV SAMUEL PASTOR 1015",
        "lat": "-16.6046",
        "lng": "-72.7009",
        "type": "BODEGA",
        "distrito": "SAMUEL PASTOR",
        "provincia": "AREQUIPA",
        "celda": "Base General"
    },
    {
        "ciudad": "AREQUIPA",
        "name": "CONDORI TAPIA RONALD WUILMER",
        "address": "AV SAMUEL PASTOR 1017",
        "lat": "-16.6046",
        "lng": "-72.7009",
        "type": "BODEGA",
        "distrito": "SAMUEL PASTOR",
        "provincia": "AREQUIPA",
        "celda": "Base General"
    },
    {
        "ciudad": "AREQUIPA",
        "name": "BENAVIDES GALLEGOS CARLOS EDUARDO",
        "address": "URB SAN BENITO DE PALERMO AVPANAMERICANA",
        "lat": "-16.6044",
        "lng": "-72.703",
        "type": "MINIMARKET",
        "distrito": "SAMUEL PASTOR",
        "provincia": "AREQUIPA",
        "celda": "Base General"
    },
    {
        "ciudad": "AREQUIPA",
        "name": "MONTES DE OCA PASTOR HELGA YERID",
        "address": "AV PANAMERICANA 110",
        "lat": "-16.604",
        "lng": "-72.7029",
        "type": "BODEGA",
        "distrito": "SAMUEL PASTOR",
        "provincia": "AREQUIPA",
        "celda": "Base General"
    },
    {
        "ciudad": "AREQUIPA",
        "name": "FERNANDEZ MONTOYA BRENDA",
        "address": "AV EL CARMEN 109",
        "lat": "-16.6034",
        "lng": "-72.7023",
        "type": "BODEGA",
        "distrito": "SAMUEL PASTOR",
        "provincia": "AREQUIPA",
        "celda": "Base General"
    },
    {
        "ciudad": "AREQUIPA",
        "name": "RONALD ANDREE MEDINA LLANQUECHA",
        "address": "CA JOGUE CHAV EZ 165 CARMEN",
        "lat": "-16.6023",
        "lng": "-72.7015",
        "type": "BODEGA",
        "distrito": "SAMUEL PASTOR",
        "provincia": "AREQUIPA",
        "celda": "Base General"
    },
    {
        "ciudad": "AREQUIPA",
        "name": "PANIURA OSCATA SARA",
        "address": "PSJ BUENOS AIRES 105",
        "lat": "-16.602",
        "lng": "-72.7018",
        "type": "BODEGA",
        "distrito": "CAMANA",
        "provincia": "AREQUIPA",
        "celda": "Base General"
    },
    {
        "ciudad": "AREQUIPA",
        "name": "QUIÑONES QUISPE ANTONIA",
        "address": "AV SAMUEL PASTOR SN TALLER JAIMITO",
        "lat": "-16.5989",
        "lng": "-72.7038",
        "type": "BODEGA",
        "distrito": "SAMUEL PASTOR",
        "provincia": "AREQUIPA",
        "celda": "Base General"
    },
    {
        "ciudad": "AREQUIPA",
        "name": "CUEVA CERVANTES MIGUELINA ELVA",
        "address": "AV SAMUEL PASTOR 1309",
        "lat": "-16.5985",
        "lng": "-72.704",
        "type": "BODEGA",
        "distrito": "SAMUEL PASTOR",
        "provincia": "AREQUIPA",
        "celda": "Base General"
    },
    {
        "ciudad": "AREQUIPA",
        "name": "CUADROS LUPO DE CAMARGO CARMEN ROSA",
        "address": "ALTO HUARANGAL MZ M LT 3",
        "lat": "-16.5958",
        "lng": "-72.702",
        "type": "BODEGA",
        "distrito": "SAMUEL PASTOR",
        "provincia": "AREQUIPA",
        "celda": "Base General"
    },
    {
        "ciudad": "AREQUIPA",
        "name": "HUAMANI CHAMBI DINA",
        "address": "ALTO HUARANGAL MZ J LT 6",
        "lat": "-16.5955",
        "lng": "-72.7022",
        "type": "BODEGA",
        "distrito": "SAMUEL PASTOR",
        "provincia": "AREQUIPA",
        "celda": "Base General"
    },
    {
        "ciudad": "AREQUIPA",
        "name": "BERRIOS CONDO EDGAR HENRI JESUS",
        "address": "JUAN PABLO VIZCARDO Y GUZMAN MZ P L",
        "lat": "-16.5951",
        "lng": "-72.7035",
        "type": "BODEGA",
        "distrito": "SAMUEL PASTOR",
        "provincia": "AREQUIPA",
        "celda": "Base General"
    },
    {
        "ciudad": "AREQUIPA",
        "name": "MAMANI SOTO ELVA",
        "address": "ALTO HUARANGAL MZ C LT 3",
        "lat": "-16.5945",
        "lng": "-72.703",
        "type": "BODEGA",
        "distrito": "SAMUEL PASTOR",
        "provincia": "AREQUIPA",
        "celda": "Base General"
    },
    {
        "ciudad": "AREQUIPA",
        "name": "GOMEZ CAYLLAHUA JOSE ESTANISLAO",
        "address": "CA LAS DELICIAS 111 SAN JACINTO",
        "lat": "-16.5929",
        "lng": "-72.7077",
        "type": "BODEGA",
        "distrito": "NICOLAS DE PIEROLA",
        "provincia": "AREQUIPA",
        "celda": "Base General"
    },
    {
        "ciudad": "AREQUIPA",
        "name": "TACO SACAÑA AGUEDA JESUSA",
        "address": "AV NICOLAS DE PIEROLA 614 HACIENDAEL MEDIO",
        "lat": "-16.5867",
        "lng": "-72.7081",
        "type": "BODEGA",
        "distrito": "JOSE MARIA QUIMPER",
        "provincia": "AREQUIPA",
        "celda": "Base General"
    },
    {
        "ciudad": "AREQUIPA",
        "name": "ZUÑIGA VALDIVIA LOURDES VICENTA",
        "address": "AV NICOLÁS DE PIEROLA N 616 HACIENDA EL MEDIO",
        "lat": "-16.5865",
        "lng": "-72.708",
        "type": "BODEGA",
        "distrito": "JOSE MARIA QUIMPER",
        "provincia": "AREQUIPA",
        "celda": "Base General"
    },
    {
        "ciudad": "AREQUIPA",
        "name": "ZUÑIGA VALDIVIA JUANA",
        "address": "JR LOS ANDES 501 AL FRET DE LA LOZADEPORTVA",
        "lat": "-16.5857",
        "lng": "-72.7067",
        "type": "BODEGA",
        "distrito": "NICOLAS DE PIEROLA",
        "provincia": "AREQUIPA",
        "celda": "Base General"
    },
    {
        "ciudad": "AREQUIPA",
        "name": "BERNAL ROJAS MARIA PAOLA",
        "address": "PABLO GRANDA 212 SAN GREGORIO",
        "lat": "-16.5742",
        "lng": "-72.7133",
        "type": "BODEGA",
        "distrito": "NICOLAS DE PIEROLA",
        "provincia": "AREQUIPA",
        "celda": "Base General"
    },
    {
        "ciudad": "AREQUIPA",
        "name": "MEJIA DE FALCON MELINA TOMASA",
        "address": "AV NICOLAS DE PIEROLA 1607",
        "lat": "-16.5736",
        "lng": "-72.7141",
        "type": "BODEGA",
        "distrito": "NICOLAS DE PIEROLA",
        "provincia": "AREQUIPA",
        "celda": "Base General"
    },
    {
        "ciudad": "AREQUIPA",
        "name": "JANCCO CALLAHUASI ROSA",
        "address": "AV JACINTO PASTOR 1509 SAN GREGORIO",
        "lat": "-16.5727",
        "lng": "-72.7135",
        "type": "BODEGA",
        "distrito": "NICOLAS DE PIEROLA",
        "provincia": "AREQUIPA",
        "celda": "Base General"
    },
    {
        "ciudad": "AREQUIPA",
        "name": "MAMANI PARI GLADIS",
        "address": "JOSE OLAYA",
        "lat": "-16.5713",
        "lng": "-72.7152",
        "type": "BODEGA",
        "distrito": "NICOLAS DE PIEROLA",
        "provincia": "AREQUIPA",
        "celda": "Base General"
    },
    {
        "ciudad": "AREQUIPA",
        "name": "CONDORI VENITO PAMELA DEL ROSARIO",
        "address": "JOSE OLAYA MZ Q LT4",
        "lat": "-16.571",
        "lng": "-72.7144",
        "type": "BODEGA",
        "distrito": "NICOLAS DE PIEROLA",
        "provincia": "AREQUIPA",
        "celda": "Base General"
    },
    {
        "ciudad": "AREQUIPA",
        "name": "QUISPE MAMANI SILVIA EUGENIA",
        "address": "CA JOSE OLAYA 507",
        "lat": "-16.5709",
        "lng": "-72.7136",
        "type": "BODEGA",
        "distrito": "NICOLAS DE PIEROLA",
        "provincia": "AREQUIPA",
        "celda": "Base General"
    },
    {
        "ciudad": "AREQUIPA",
        "name": "LIMA DE HUACARPUMA LUISA YNES",
        "address": "SIMON BOLIVAR 680",
        "lat": "-16.5705",
        "lng": "-72.7164",
        "type": "BODEGA",
        "distrito": "NICOLAS DE PIEROLA",
        "provincia": "AREQUIPA",
        "celda": "Base General"
    },
    {
        "ciudad": "AREQUIPA",
        "name": "QUISPE RAMOS GISELA LIZBETH",
        "address": "CA MARIANO MELGAR 601A 601",
        "lat": "-16.5699",
        "lng": "-72.7159",
        "type": "BODEGA",
        "distrito": "NICOLAS DE PIEROLA",
        "provincia": "AREQUIPA",
        "celda": "Base General"
    },
    {
        "ciudad": "AREQUIPA",
        "name": "PINEDA QUISPE DIEGO SALVADOR",
        "address": "MARIANO MELGAR 524",
        "lat": "-16.5699",
        "lng": "-72.7158",
        "type": "BODEGA",
        "distrito": "NICOLAS DE PIEROLA",
        "provincia": "AREQUIPA",
        "celda": "Base General"
    },
    {
        "ciudad": "AREQUIPA",
        "name": "MERMA CONDORCAHUANA YEYMI ROXANA",
        "address": "CALLE MARIANO MELGAR 524 SAN GREGORIO",
        "lat": "-16.5699",
        "lng": "-72.7158",
        "type": "BODEGA",
        "distrito": "NICOLAS DE PIEROLA",
        "provincia": "AREQUIPA",
        "celda": "Base General"
    },
    {
        "ciudad": "AREQUIPA",
        "name": "QUISPE LEON ANA MARIA",
        "address": "AV NICOLAS DE PIEROLA 2003",
        "lat": "-16.5696",
        "lng": "-72.7154",
        "type": "BODEGA",
        "distrito": "NICOLAS DE PIEROLA",
        "provincia": "AREQUIPA",
        "celda": "Base General"
    },
    {
        "ciudad": "AREQUIPA",
        "name": "YTO DE SOTOMAYOR TEOFILA",
        "address": "SANTA CLARA B5",
        "lat": "-16.436309",
        "lng": "-71.521877",
        "type": "BODEGA",
        "distrito": "JOSE LUIS BUSTAMANTE Y RIVERO",
        "provincia": "AREQUIPA",
        "celda": "Base General"
    },
    {
        "ciudad": "AREQUIPA",
        "name": "ALI MURILLO GRICELDA",
        "address": "JUAN PABLO VISCARDO Y GUZMAN J 2 B",
        "lat": "-16.436238",
        "lng": "-71.5221",
        "type": "BODEGA",
        "distrito": "JOSE LUIS BUSTAMANTE Y RIVERO",
        "provincia": "AREQUIPA",
        "celda": "Base General"
    },
    {
        "ciudad": "AREQUIPA",
        "name": "VEL MARKET E.I.R.L.",
        "address": "MZ H LT 30 EMANCIPACION URB",
        "lat": "-16.435829",
        "lng": "-71.522213",
        "type": "MINIMARKET",
        "distrito": "AREQUIPA",
        "provincia": "AREQUIPA",
        "celda": "Base General"
    },
    {
        "ciudad": "AREQUIPA",
        "name": "FAMILIA S.R.L.",
        "address": "AV DOLORES 188II",
        "lat": "-16.435013",
        "lng": "-71.522088",
        "type": "MINIMARKET",
        "distrito": "JOSE LUIS BUSTAMANTE Y RIVERO",
        "provincia": "AREQUIPA",
        "celda": "Base General"
    },
    {
        "ciudad": "AREQUIPA",
        "name": "HUAMANI HUAMAN EDITH SONIA",
        "address": "PROLONGACION DOLORES 169 J.L.B. Y RIVERO",
        "lat": "-16.434855",
        "lng": "-71.522189",
        "type": "BODEGA",
        "distrito": "JOSE LUIS BUSTAMANTE Y RIVERO",
        "provincia": "AREQUIPA",
        "celda": "Base General"
    },
    {
        "ciudad": "AREQUIPA",
        "name": "ARTEAGA VELASQUEZ JOSE IGNACIO",
        "address": "JUAN PABLO M16 AV DOLORES",
        "lat": "-16.433239",
        "lng": "-71.52278",
        "type": "BODEGA",
        "distrito": "JOSE LUIS BUSTAMANTE Y RIVERO",
        "provincia": "AREQUIPA",
        "celda": "Base General"
    },
    {
        "ciudad": "AREQUIPA",
        "name": "SUTTA RAMOS MARY LUZ",
        "address": "J.P.V. Y GUZMAN M 16 JLB Y RIVERO",
        "lat": "-16.43231",
        "lng": "-71.52338",
        "type": "BODEGA",
        "distrito": "JOSE LUIS BUSTAMANTE Y RIVERO",
        "provincia": "AREQUIPA",
        "celda": "Base General"
    },
    {
        "ciudad": "AREQUIPA",
        "name": "ALEJO BUSTINZA ANA MARIA",
        "address": "ALTO DE LA LUNA PRLG DOLORES H9",
        "lat": "-16.432165",
        "lng": "-71.523408",
        "type": "BODEGA",
        "distrito": "JOSE LUIS BUSTAMANTE Y RIVERO",
        "provincia": "AREQUIPA",
        "celda": "Base General"
    },
    {
        "ciudad": "AREQUIPA",
        "name": "ALI BUSTINZA HILDA",
        "address": "ALTO DE LA LUNA H2 9 IV ETAPA",
        "lat": "-16.432144",
        "lng": "-71.523243",
        "type": "BODEGA",
        "distrito": "JOSE LUIS BUSTAMANTE Y RIVERO",
        "provincia": "AREQUIPA",
        "celda": "Base General"
    },
    {
        "ciudad": "AREQUIPA",
        "name": "VIDA FELIZ & ABUNDANTE S.A.C",
        "address": "AV DOLORES 191",
        "lat": "-16.431928",
        "lng": "-71.522961",
        "type": "MINIMARKET",
        "distrito": "JOSE LUIS BUSTAMANTE Y RIVERO",
        "provincia": "AREQUIPA",
        "celda": "Base General"
    },
    {
        "ciudad": "AREQUIPA",
        "name": "GOMEZ SANCHEZ DANTE ANGELO",
        "address": "AV DOLORES 191 B ",
        "lat": "-16.431925",
        "lng": "-71.522834",
        "type": "MINIMARKET",
        "distrito": "JOSE LUIS BUSTAMANTE Y RIVERO",
        "provincia": "AREQUIPA",
        "celda": "Base General"
    },
    {
        "ciudad": "AREQUIPA",
        "name": "CAPIA MACHACA ANGELICA REMIGIA",
        "address": "URB ALTO DE LA LUNA IV ETAPA F 2 5",
        "lat": "-16.4311",
        "lng": "-71.523432",
        "type": "BODEGA",
        "distrito": "JOSE LUIS BUSTAMANTE Y RIVERO",
        "provincia": "AREQUIPA",
        "celda": "Base General"
    },
    {
        "ciudad": "AREQUIPA",
        "name": "CHAVEZ RIVERA DE ALARCON DANIELA AL",
        "address": "BERNARDO ALCEDO 104 URB 13 DE ENEROJ.L.B Y RIVERO",
        "lat": "-16.430721",
        "lng": "-71.531157",
        "type": "BODEGA",
        "distrito": "JOSE LUIS BUSTAMANTE Y RIVERO",
        "provincia": "AREQUIPA",
        "celda": "Base General"
    },
    {
        "ciudad": "AREQUIPA",
        "name": "GALLEGOS BEDREGAL LUCY",
        "address": "CA BERNARDO ALCEDO 105",
        "lat": "-16.430712",
        "lng": "-71.531108",
        "type": "BODEGA",
        "distrito": "JOSE LUIS BUSTAMANTE Y RIVERO",
        "provincia": "AREQUIPA",
        "celda": "Base General"
    },
    {
        "ciudad": "AREQUIPA",
        "name": "OCHOCHOQUE TIPO NILS ROMER",
        "address": "AV. EEUU 102 JLB Y RIVERO",
        "lat": "-16.430398",
        "lng": "-71.530469",
        "type": "BODEGA",
        "distrito": "JOSE LUIS BUSTAMANTE Y RIVERO",
        "provincia": "AREQUIPA",
        "celda": "Base General"
    },
    {
        "ciudad": "AREQUIPA",
        "name": "RODAS TONG ROSA ANGELA",
        "address": "AV. EEUU 200 URB. SATELITE GRANDE JLB Y RIVERO",
        "lat": "-16.430222",
        "lng": "-71.529811",
        "type": "BODEGA",
        "distrito": "JOSE LUIS BUSTAMANTE Y RIVERO",
        "provincia": "AREQUIPA",
        "celda": "Base General"
    },
    {
        "ciudad": "AREQUIPA",
        "name": "CANDIA FERNANDEZ SERGIO",
        "address": "URB P D CANSECO 311 B AV EEUU JLB YR",
        "lat": "-16.429951",
        "lng": "-71.528524",
        "type": "BODEGA",
        "distrito": "JOSE LUIS BUSTAMANTE Y RIVERO",
        "provincia": "AREQUIPA",
        "celda": "Base General"
    },
    {
        "ciudad": "AREQUIPA",
        "name": "CRUZ QUIÑONES MANUELA",
        "address": "AV EEUU E11 ALTO DE LA LUNA JLB Y",
        "lat": "-16.429885",
        "lng": "-71.527184",
        "type": "BODEGA",
        "distrito": "JOSE LUIS BUSTAMANTE Y RIVERO",
        "provincia": "AREQUIPA",
        "celda": "Base General"
    },
    {
        "ciudad": "AREQUIPA",
        "name": "MODESTO TIQUE SILVIA VANESA",
        "address": "AV. EEUU E 6 JOSE LUIS BUSTAMANTEYRIVERO",
        "lat": "-16.429809",
        "lng": "-71.527633",
        "type": "BODEGA",
        "distrito": "JOSE LUIS BUSTAMANTE Y RIVERO",
        "provincia": "AREQUIPA",
        "celda": "Base General"
    },
    {
        "ciudad": "AREQUIPA",
        "name": "CONDORI QUISPE PABLO JORGE",
        "address": "AV EEUU G 11 ALTO DE LA LUNA I ETAPA JLB Y RIVERO",
        "lat": "-16.429711",
        "lng": "-71.525984",
        "type": "PANADERIAS",
        "distrito": "JOSE LUIS BUSTAMANTE Y RIVERO",
        "provincia": "AREQUIPA",
        "celda": "Base General"
    },
    {
        "ciudad": "AREQUIPA",
        "name": "SANTANDER SANTANDER CARMELO RICHARD",
        "address": "AV EE.UU M 32 ALTO DE LA LUNA J.L.BY RIVERO",
        "lat": "-16.429684",
        "lng": "-71.525423",
        "type": "BODEGA",
        "distrito": "JOSE LUIS BUSTAMANTE Y RIVERO",
        "provincia": "AREQUIPA",
        "celda": "Base General"
    },
    {
        "ciudad": "AREQUIPA",
        "name": "LOBON CENTENO OSWALDO",
        "address": "URB PEDRO DIEZ CANCECO W 16",
        "lat": "-16.429601",
        "lng": "-71.527261",
        "type": "BODEGA",
        "distrito": "JOSE LUIS BUSTAMANTE Y RIVERO",
        "provincia": "AREQUIPA",
        "celda": "Base General"
    },
    {
        "ciudad": "AREQUIPA",
        "name": "LAIME ZUÑIGA LIZETH JACQUELINE",
        "address": "P D CANCECO X 13 JLB Y R",
        "lat": "-16.429482",
        "lng": "-71.526958",
        "type": "BODEGA",
        "distrito": "JOSE LUIS BUSTAMANTE Y RIVERO",
        "provincia": "AREQUIPA",
        "celda": "Base General"
    },
    {
        "ciudad": "AREQUIPA",
        "name": "NAVARRO CHOQUE EDITH",
        "address": "URB PEDRO DIEZ CANCECO MZ Y LT 20",
        "lat": "-16.429478",
        "lng": "-71.526336",
        "type": "BODEGA",
        "distrito": "JOSE LUIS BUSTAMANTE Y RIVERO",
        "provincia": "AREQUIPA",
        "celda": "Base General"
    },
    {
        "ciudad": "AREQUIPA",
        "name": "SOTO VDA DE TORRES NANCY ELIZABETH",
        "address": "AV EE.UU Y 20",
        "lat": "-16.429464",
        "lng": "-71.52688",
        "type": "BODEGA",
        "distrito": "JOSE LUIS BUSTAMANTE Y RIVERO",
        "provincia": "AREQUIPA",
        "celda": "Base General"
    },
    {
        "ciudad": "AREQUIPA",
        "name": "PERALES BRAVO MILTON BENITO",
        "address": "PEDRO DIEZ CANSECO Z 6 J.L.B Y RIVERO",
        "lat": "-16.428949",
        "lng": "-71.525198",
        "type": "BODEGA",
        "distrito": "JOSE LUIS BUSTAMANTE Y RIVERO",
        "provincia": "AREQUIPA",
        "celda": "Base General"
    },
    {
        "ciudad": "AREQUIPA",
        "name": "AÑARI CASTRO LIZBETH KATERINE",
        "address": "URB MONTERREY MZ G LT 1",
        "lat": "-16.42868",
        "lng": "-71.52202",
        "type": "BODEGA",
        "distrito": "JOSE LUIS BUSTAMANTE Y RIVERO",
        "provincia": "AREQUIPA",
        "celda": "Base General"
    },
    {
        "ciudad": "AREQUIPA",
        "name": "GIRELLA E.I.R.L.",
        "address": "URB MONTERREY MZA A LTE 15A ENTRADATECSUP",
        "lat": "-16.42802",
        "lng": "-71.520429",
        "type": "BODEGA",
        "distrito": "JOSE LUIS BUSTAMANTE Y RIVERO",
        "provincia": "AREQUIPA",
        "celda": "Base General"
    },
    {
        "ciudad": "AREQUIPA",
        "name": "LA UNION VIDA MAS S.A.C.",
        "address": "URB LA MELGARIANA E23 AV HARTLEY",
        "lat": "-16.427895",
        "lng": "-71.520665",
        "type": "PANADERIAS",
        "distrito": "JOSE LUIS BUSTAMANTE Y RIVERO",
        "provincia": "AREQUIPA",
        "celda": "Base General"
    },
    {
        "ciudad": "AREQUIPA",
        "name": "PICKMAN FUENTES NOEMI NADEYDA",
        "address": "URB LA ESTRELLA G 7",
        "lat": "-16.427745",
        "lng": "-71.518281",
        "type": "BODEGA",
        "distrito": "JOSE LUIS BUSTAMANTE Y RIVERO",
        "provincia": "AREQUIPA",
        "celda": "Base General"
    },
    {
        "ciudad": "AREQUIPA",
        "name": "ESCOBAR TOMAYA CHARLES ABEL",
        "address": "AV HARTLEY D 39 URB LA MELGARIANA",
        "lat": "-16.427693",
        "lng": "-71.520394",
        "type": "BODEGA",
        "distrito": "JOSE LUIS BUSTAMANTE Y RIVERO",
        "provincia": "AREQUIPA",
        "celda": "Base General"
    },
    {
        "ciudad": "AREQUIPA",
        "name": "VARGAS SUCASAIRE FELIX",
        "address": "AV DOLORES 151 A JLB Y RIVERO",
        "lat": "-16.427659",
        "lng": "-71.523746",
        "type": "BODEGA",
        "distrito": "JOSE LUIS BUSTAMANTE Y RIVERO",
        "provincia": "AREQUIPA",
        "celda": "Base General"
    },
    {
        "ciudad": "AREQUIPA",
        "name": "YURU PERUVIAN GROUP SOCIEDAD ANONIM",
        "address": "EL CONDOR LT 1 LA MELGARIANA",
        "lat": "-16.42761",
        "lng": "-71.520483",
        "type": "MINIMARKET",
        "distrito": "JOSE LUIS BUSTAMANTE Y RIVERO",
        "provincia": "AREQUIPA",
        "celda": "Base General"
    },
    {
        "ciudad": "AREQUIPA",
        "name": "AYA PONCE ZEBALLOS BRENDA",
        "address": "URB. LA ESTRELLA C 1 JLB Y RIVERO",
        "lat": "-16.427495",
        "lng": "-71.517863",
        "type": "BODEGA",
        "distrito": "JOSE LUIS BUSTAMANTE Y RIVERO",
        "provincia": "AREQUIPA",
        "celda": "Base General"
    },
    {
        "ciudad": "AREQUIPA",
        "name": "PAZ CCOPA BRYAN FRANCIS",
        "address": "AV HARLEY D 26",
        "lat": "-16.427296",
        "lng": "-71.519585",
        "type": "BODEGA",
        "distrito": "JOSE LUIS BUSTAMANTE Y RIVERO",
        "provincia": "AREQUIPA",
        "celda": "Base General"
    },
    {
        "ciudad": "AREQUIPA",
        "name": "VASQUEZ ALVAREZ KATRIEL RENATO",
        "address": "URB LA MELGARIANA C 1",
        "lat": "-16.427124",
        "lng": "-71.520703",
        "type": "BODEGA",
        "distrito": "JOSE LUIS BUSTAMANTE Y RIVERO",
        "provincia": "AREQUIPA",
        "celda": "Base General"
    },
    {
        "ciudad": "AREQUIPA",
        "name": "ORTIZ QUISPE DE LUQUE GABRIELA ROSA",
        "address": "URB LOS JACINTOS A 3B J.L.B Y RIVERO",
        "lat": "-16.427027",
        "lng": "-71.523658",
        "type": "BODEGA",
        "distrito": "JOSE LUIS BUSTAMANTE Y RIVERO",
        "provincia": "AREQUIPA",
        "celda": "Base General"
    },
    {
        "ciudad": "AREQUIPA",
        "name": "VELEZ BUSTAMANTE LUBY MARIA MAGDALE",
        "address": "URB P DIEZ CANSECO MZ B LT 5RIVERO",
        "lat": "-16.426762",
        "lng": "-71.5251",
        "type": "BODEGA",
        "distrito": "JOSE LUIS BUSTAMANTE Y RIVERO",
        "provincia": "AREQUIPA",
        "celda": "Base General"
    },
    {
        "ciudad": "AREQUIPA",
        "name": "LA CANASTA BRAVA EIRL",
        "address": "ASOC DUNAS DEL SUR B6 JLBR",
        "lat": "-16.42593",
        "lng": "-71.519432",
        "type": "BODEGA",
        "distrito": "JOSE LUIS BUSTAMANTE Y RIVERO",
        "provincia": "AREQUIPA",
        "celda": "Base General"
    },
    {
        "ciudad": "AREQUIPA",
        "name": "AYUQUE HUARCAYA DARWIN GONZALO",
        "address": "AV GUARDIA CIVIL 122",
        "lat": "-16.425476",
        "lng": "-71.514209",
        "type": "BODEGA",
        "distrito": "PAUCARPATA",
        "provincia": "AREQUIPA",
        "celda": "Base General"
    },
    {
        "ciudad": "AREQUIPA",
        "name": "PONCE DE HERRERA YOLANDA ESTHER",
        "address": "GR 32 A COOP DANIEL ALCIDES CARRION",
        "lat": "-16.425291",
        "lng": "-71.521241",
        "type": "BODEGA",
        "distrito": "JOSE LUIS BUSTAMANTE Y RIVERO",
        "provincia": "AREQUIPA",
        "celda": "Base General"
    },
    {
        "ciudad": "AREQUIPA",
        "name": "MOLINA MACHACA SANDRA MARIA",
        "address": "AV. GUARDIA CIVIL 149",
        "lat": "-16.425237",
        "lng": "-71.513687",
        "type": "BODEGA",
        "distrito": "PAUCARPATA",
        "provincia": "AREQUIPA",
        "celda": "Base General"
    },
    {
        "ciudad": "AREQUIPA",
        "name": "PUMA COPA PEYQUER BHEJAMID AMILCAR",
        "address": "COOP. DANIEL ALCIDES CARRION G 32",
        "lat": "-16.425229",
        "lng": "-71.521092",
        "type": "BODEGA",
        "distrito": "JOSE LUIS BUSTAMANTE Y RIVERO",
        "provincia": "AREQUIPA",
        "celda": "Base General"
    },
    {
        "ciudad": "AREQUIPA",
        "name": "CASTILLO BLANCOS ILDA",
        "address": "D A CARRION B 2 JLB Y RIVERO",
        "lat": "-16.424981",
        "lng": "-71.523449",
        "type": "BODEGA",
        "distrito": "JOSE LUIS BUSTAMANTE Y RIVERO",
        "provincia": "AREQUIPA",
        "celda": "Base General"
    },
    {
        "ciudad": "AREQUIPA",
        "name": "VIZCARDO LOPEZ NELLY BRIGIDA",
        "address": "E 20 COOP. ALCIDES CARRION",
        "lat": "-16.42421",
        "lng": "-71.523209",
        "type": "BODEGA",
        "distrito": "JOSE LUIS BUSTAMANTE Y RIVERO",
        "provincia": "AREQUIPA",
        "celda": "Base General"
    },
    {
        "ciudad": "AREQUIPA",
        "name": "RAMOS LUZA NORMA JULIA",
        "address": "URB QUINTA TRISTAN L 1 RESIDENCIALGRECO TIENDA 2",
        "lat": "-16.421801",
        "lng": "-71.52642",
        "type": "MINIMARKET",
        "distrito": "JOSE LUIS BUSTAMANTE Y RIVERO",
        "provincia": "AREQUIPA",
        "celda": "Base General"
    },
    {
        "ciudad": "AREQUIPA",
        "name": "PINTO VILCAPAZA JORGE LUIS",
        "address": "MZA E LOTE 10 URB CAMPINA DORADA",
        "lat": "-16.419697",
        "lng": "-71.540344",
        "type": "BODEGA",
        "distrito": "AREQUIPA",
        "provincia": "AREQUIPA",
        "celda": "Base General"
    },
    {
        "ciudad": "AREQUIPA",
        "name": "QUILLCA FERNANDEZ YOFRE",
        "address": "URB. PABLO SEXTO MZ.L LT.06 II ETAPA",
        "lat": "-16.419403",
        "lng": "-71.53851",
        "type": "BODEGA",
        "distrito": "AREQUIPA",
        "provincia": "AREQUIPA",
        "celda": "Base General"
    },
    {
        "ciudad": "AREQUIPA",
        "name": "CUTIRI CCALLOCONDO NANCY",
        "address": "URB CAMPIÑA DORADA MZ F LT 4",
        "lat": "-16.419264",
        "lng": "-71.538929",
        "type": "BODEGA",
        "distrito": "JOSE LUIS BUSTAMANTE Y RIVERO",
        "provincia": "AREQUIPA",
        "celda": "Base General"
    },
    {
        "ciudad": "AREQUIPA",
        "name": "ESCOBAR CENTON JUAN CARLOS",
        "address": "AV VIDAURRAZAGA B4",
        "lat": "-16.418674",
        "lng": "-71.539487",
        "type": "BODEGA",
        "distrito": "AREQUIPA",
        "provincia": "AREQUIPA",
        "celda": "Base General"
    },
    {
        "ciudad": "AREQUIPA",
        "name": "PANTIGOZO PINTO CARMEN MARIANA",
        "address": "MZ A LT 18 AV VIDAURRAZAGA CAMPIÑADORADA",
        "lat": "-16.418434",
        "lng": "-71.539286",
        "type": "BODEGA",
        "distrito": "AREQUIPA",
        "provincia": "AREQUIPA",
        "celda": "Base General"
    },
    {
        "ciudad": "AREQUIPA",
        "name": "HALIRE SALAZAR SASHA MIRIAM ALESSAN",
        "address": "URB AGRICULTURA I 1",
        "lat": "-16.416664",
        "lng": "-71.528645",
        "type": "BODEGA",
        "distrito": "JOSE LUIS BUSTAMANTE Y RIVERO",
        "provincia": "AREQUIPA",
        "celda": "Base General"
    },
    {
        "ciudad": "AREQUIPA",
        "name": "GRAN MISTI TIENDAS S.A.C.",
        "address": "URB. AGRICULTURA I 1 JLB Y RIVERO",
        "lat": "-16.416648",
        "lng": "-71.52852",
        "type": "BODEGA",
        "distrito": "JOSE LUIS BUSTAMANTE Y RIVERO",
        "provincia": "AREQUIPA",
        "celda": "Base General"
    },
    {
        "ciudad": "AREQUIPA",
        "name": "CASO SONCO MARCELA DEOLINDA",
        "address": "CA ROMA 307 URB JORGE CHAVEZ",
        "lat": "-16.416489",
        "lng": "-71.494429",
        "type": "BODEGA",
        "distrito": "PAUCARPATA",
        "provincia": "AREQUIPA",
        "celda": "Base General"
    },
    {
        "ciudad": "AREQUIPA",
        "name": "VENTURA APAZA MASDALIA ANGELA",
        "address": "LOS ALPES CON ROMA 121 JORGE CHAVEZPAUCARPATA",
        "lat": "-16.416416",
        "lng": "-71.494009",
        "type": "BODEGA",
        "distrito": "PAUCARPATA",
        "provincia": "AREQUIPA",
        "celda": "Base General"
    },
    {
        "ciudad": "AREQUIPA",
        "name": "CHAMBI CHAMBI RICARDO NILO",
        "address": "CALLE ABANCAY 102 URB JORGE CHAVEZ",
        "lat": "-16.416239",
        "lng": "-71.49663",
        "type": "BODEGA",
        "distrito": "PAUCARPATA",
        "provincia": "AREQUIPA",
        "celda": "Base General"
    },
    {
        "ciudad": "AREQUIPA",
        "name": "ESPIRILLA DE CHAMBI JUANA BARBARA",
        "address": "AV. J. CHAVEZ 1214 URB. J. CHAVEZ PAUCARPATA",
        "lat": "-16.415384",
        "lng": "-71.496309",
        "type": "BODEGA",
        "distrito": "PAUCARPATA",
        "provincia": "AREQUIPA",
        "celda": "Base General"
    },
    {
        "ciudad": "AREQUIPA",
        "name": "CUARITE VALDIVIA NOEMI NILDA",
        "address": "AGRICULTURA K30 JLB Y RIVERO",
        "lat": "-16.415336",
        "lng": "-71.52904",
        "type": "BODEGA",
        "distrito": "JOSE LUIS BUSTAMANTE Y RIVERO",
        "provincia": "AREQUIPA",
        "celda": "Base General"
    },
    {
        "ciudad": "AREQUIPA",
        "name": "HURTADO SANCHEZ KATIUSCA",
        "address": "AGRICULTURA K302 DEPARTAMENTO 102",
        "lat": "-16.415336",
        "lng": "-71.52904",
        "type": "BODEGA",
        "distrito": "JOSE LUIS BUSTAMANTE Y RIVERO",
        "provincia": "AREQUIPA",
        "celda": "Base General"
    },
    {
        "ciudad": "AREQUIPA",
        "name": "QUISPE LAZARO CHARLES MILTON",
        "address": "MZA. D LOTE. 3 COO. JUVENTUD FERROV",
        "lat": "-16.415151",
        "lng": "-71.540535",
        "type": "BODEGA",
        "distrito": "AREQUIPA",
        "provincia": "AREQUIPA",
        "celda": "Base General"
    },
    {
        "ciudad": "AREQUIPA",
        "name": "CCOSI HUISACAYNA BIANNY MARITZA",
        "address": "LOS ROSALES C 1",
        "lat": "-16.414935",
        "lng": "-71.528806",
        "type": "BODEGA",
        "distrito": "JOSE LUIS BUSTAMANTE Y RIVERO",
        "provincia": "AREQUIPA",
        "celda": "Base General"
    },
    {
        "ciudad": "AREQUIPA",
        "name": "TURPO MAMANI MILAGROS JOSELYN",
        "address": "PSJE MELGAR 103 URB PEDRO P DIAZ PAUCARPATA",
        "lat": "-16.414617",
        "lng": "-71.499034",
        "type": "BODEGA",
        "distrito": "PAUCARPATA",
        "provincia": "AREQUIPA",
        "celda": "Base General"
    },
    {
        "ciudad": "AREQUIPA",
        "name": "MOLINA HANCCO YONY GILBERT",
        "address": "PSJE MELGAR 103 B URB. PEDRO P DIZPAUCARPATA",
        "lat": "-16.414501",
        "lng": "-71.498925",
        "type": "BODEGA",
        "distrito": "PAUCARPATA",
        "provincia": "AREQUIPA",
        "celda": "Base General"
    },
    {
        "ciudad": "AREQUIPA",
        "name": "CALSI QUISPE RUTH HILDA",
        "address": "TUPAC AMARU 1306 URB. PEDRO P DIAZ",
        "lat": "-16.414316",
        "lng": "-71.497921",
        "type": "BODEGA",
        "distrito": "PAUCARPATA",
        "provincia": "AREQUIPA",
        "celda": "Base General"
    },
    {
        "ciudad": "AREQUIPA",
        "name": "SALAZAR MIRANDA ELISBAN",
        "address": "AV MARISCAL CASTILLA 2300 B 15 DE AGOSTO PAUCARPATA",
        "lat": "-16.413869",
        "lng": "-71.499789",
        "type": "BODEGA",
        "distrito": "PAUCARPATA",
        "provincia": "AREQUIPA",
        "celda": "Base General"
    },
    {
        "ciudad": "AREQUIPA",
        "name": "LOAYZA COBOS CARMINA LUZ",
        "address": "URB FRANCISCO MOSTAJO MZ D LT 5",
        "lat": "-16.413411",
        "lng": "-71.531532",
        "type": "BODEGA",
        "distrito": "AREQUIPA",
        "provincia": "AREQUIPA",
        "celda": "Base General"
    },
    {
        "ciudad": "AREQUIPA",
        "name": "DEL CARPIO JUAREZ NORKA",
        "address": "FCO. MOSTAJO E 50 CERCADO",
        "lat": "-16.413369",
        "lng": "-71.532864",
        "type": "BODEGA",
        "distrito": "AREQUIPA",
        "provincia": "AREQUIPA",
        "celda": "Base General"
    },
    {
        "ciudad": "AREQUIPA",
        "name": "ALCOCER VALDIVIA JUAN LUIS",
        "address": "URB FRANCISCO MOSTAJO MZA D1 LT21",
        "lat": "-16.413156",
        "lng": "-71.530552",
        "type": "BODEGA",
        "distrito": "JOSE LUIS BUSTAMANTE Y RIVERO",
        "provincia": "AREQUIPA",
        "celda": "Base General"
    },
    {
        "ciudad": "AREQUIPA",
        "name": "MINIMARKET CHINITO S.A.C.",
        "address": "AV SALAVERRY 512 URB 15 DE AGOSTO",
        "lat": "-16.413108",
        "lng": "-71.501282",
        "type": "BODEGA",
        "distrito": "PAUCARPATA",
        "provincia": "AREQUIPA",
        "celda": "Base General"
    },
    {
        "ciudad": "AREQUIPA",
        "name": "ESQUICHA OCHOA PALERMO RICARDO",
        "address": "AV. SALAVERRY 801 15 DE AGOSTO PAUCARPATA",
        "lat": "-16.413084",
        "lng": "-71.499825",
        "type": "BODEGA",
        "distrito": "PAUCARPATA",
        "provincia": "AREQUIPA",
        "celda": "Base General"
    },
    {
        "ciudad": "AREQUIPA",
        "name": "QUIÑONEZ MAMANI CESAR FELIPE",
        "address": "AV MARISCAL CASTILLA 2007",
        "lat": "-16.41222",
        "lng": "-71.501957",
        "type": "BODEGA",
        "distrito": "PAUCARPATA",
        "provincia": "AREQUIPA",
        "celda": "Base General"
    },
    {
        "ciudad": "AREQUIPA",
        "name": "COLLADO DELGADO JORGE ALFREDO",
        "address": "AV. MARISCAL CASTILLA N 2000 URB 15DE AGOSTO PAUCARPATA",
        "lat": "-16.41191",
        "lng": "-71.502765",
        "type": "BODEGA",
        "distrito": "PAUCARPATA",
        "provincia": "AREQUIPA",
        "celda": "Base General"
    },
    {
        "ciudad": "AREQUIPA",
        "name": "PACO ARIAS JEANETTE MARLENI",
        "address": "AV. ARGENTINA 1013 URB. 15 DE AGOST",
        "lat": "-16.411743",
        "lng": "-71.502698",
        "type": "BODEGA",
        "distrito": "PAUCARPATA",
        "provincia": "AREQUIPA",
        "celda": "Base General"
    },
    {
        "ciudad": "AREQUIPA",
        "name": "ALCOCER VALDIVIA CLAUDIA ALEJANDRA",
        "address": "URB OBANDO CA LAS FRESAS 104",
        "lat": "-16.411608",
        "lng": "-71.539473",
        "type": "BODEGA",
        "distrito": "AREQUIPA",
        "provincia": "AREQUIPA",
        "celda": "Base General"
    },
    {
        "ciudad": "AREQUIPA",
        "name": "OLAZABAL CAYO ROSA",
        "address": "VILLA GLORIA B5",
        "lat": "-16.411512",
        "lng": "-71.532089",
        "type": "BODEGA",
        "distrito": "AREQUIPA",
        "provincia": "AREQUIPA",
        "celda": "Base General"
    },
    {
        "ciudad": "AREQUIPA",
        "name": "SUPERMARKET NAZARENO E.I.R.L.",
        "address": "URB VILLA GLORIA C 1 CERCADO",
        "lat": "-16.411453",
        "lng": "-71.531715",
        "type": "BODEGA",
        "distrito": "AREQUIPA",
        "provincia": "AREQUIPA",
        "celda": "Base General"
    },
    {
        "ciudad": "AREQUIPA",
        "name": "CASTILLO YAÑEZ JUANA SONIA",
        "address": "CA VILLA GLORIA MZ B LT 3",
        "lat": "-16.410952",
        "lng": "-71.53203",
        "type": "MINIMARKET",
        "distrito": "AREQUIPA",
        "provincia": "AREQUIPA",
        "celda": "Base General"
    },
    {
        "ciudad": "AREQUIPA",
        "name": "CASTILLO YAÑEZ JUANA SONIA",
        "address": "URB. VILLA GLORIA A 18 CERCADO",
        "lat": "-16.41085",
        "lng": "-71.532327",
        "type": "BODEGA",
        "distrito": "AREQUIPA",
        "provincia": "AREQUIPA",
        "celda": "Base General"
    },
    {
        "ciudad": "AREQUIPA",
        "name": "QUISPE RAMOS JESSICA",
        "address": "AV INDEPENDENCIA 230",
        "lat": "-16.410834",
        "lng": "-71.53537",
        "type": "BODEGA",
        "distrito": "AREQUIPA",
        "provincia": "AREQUIPA",
        "celda": "Base General"
    },
    {
        "ciudad": "AREQUIPA",
        "name": "SIVINCHA SAPACAYO POLICARPIO",
        "address": "VILLA GLORIA A 17",
        "lat": "-16.410746",
        "lng": "-71.532343",
        "type": "PANADERIAS",
        "distrito": "AREQUIPA",
        "provincia": "AREQUIPA",
        "celda": "Base General"
    },
    {
        "ciudad": "AREQUIPA",
        "name": "MOROCCO SUPO OLGA BEATRIZ",
        "address": "CALLE LONDRES 202 STA ROSA MARIANOMELGAR",
        "lat": "-16.410589",
        "lng": "-71.511162",
        "type": "BODEGA",
        "distrito": "MARIANO MELGAR",
        "provincia": "AREQUIPA",
        "celda": "Base General"
    },
    {
        "ciudad": "AREQUIPA",
        "name": "GUZMAN TACO PAOLA VICTORIA",
        "address": "LONDRES 318 STA ROSA MNO MELGAR",
        "lat": "-16.410426",
        "lng": "-71.509892",
        "type": "BODEGA",
        "distrito": "MARIANO MELGAR",
        "provincia": "AREQUIPA",
        "celda": "Base General"
    },
    {
        "ciudad": "AREQUIPA",
        "name": "AQUISE MULLISACA EDSON HENRY",
        "address": "AV.MCAL.CASTILLA 1801 15 DE AGOSTOPAUCARPATA",
        "lat": "-16.410303",
        "lng": "-71.504819",
        "type": "BODEGA",
        "distrito": "PAUCARPATA",
        "provincia": "AREQUIPA",
        "celda": "Base General"
    },
    {
        "ciudad": "AREQUIPA",
        "name": "ALVAREZ ALVAREZ MARIA GLADYS",
        "address": "LONDRES 309 SANTA ROSA MARIANO MELGAR",
        "lat": "-16.410267",
        "lng": "-71.51023",
        "type": "BODEGA",
        "distrito": "MARIANO MELGAR",
        "provincia": "AREQUIPA",
        "celda": "Base General"
    },
    {
        "ciudad": "AREQUIPA",
        "name": "FIGUEROA NANCAY MARIA MERCEDES",
        "address": "CAL. PORCEL NRO. 224 URB. MARIA ISABEL",
        "lat": "-16.409937",
        "lng": "-71.539199",
        "type": "BODEGA",
        "distrito": "AREQUIPA",
        "provincia": "AREQUIPA",
        "celda": "Base General"
    },
    {
        "ciudad": "AREQUIPA",
        "name": "VILLAGARAY BUSTINZA LUIS ALBERTO",
        "address": "AV LAMBRAMANI 169A",
        "lat": "-16.409852",
        "lng": "-71.523042",
        "type": "BODEGA",
        "distrito": "AREQUIPA",
        "provincia": "AREQUIPA",
        "celda": "Base General"
    },
    {
        "ciudad": "AREQUIPA",
        "name": "CASTILLO YAÑEZ JUAN LUIS",
        "address": "AV. INDEPENDENCIA NRO. 1732 URB. IVCENTENARIO",
        "lat": "-16.409018",
        "lng": "-71.53338",
        "type": "BODEGA",
        "distrito": "AREQUIPA",
        "provincia": "AREQUIPA",
        "celda": "Base General"
    },
    {
        "ciudad": "AREQUIPA",
        "name": "ZAPANA PEREZ MARIA CANDELARIA",
        "address": "CASTILLA 1404 MNO MELGAR",
        "lat": "-16.408686",
        "lng": "-71.507603",
        "type": "BODEGA",
        "distrito": "MARIANO MELGAR",
        "provincia": "AREQUIPA",
        "celda": "Base General"
    },
    {
        "ciudad": "AREQUIPA",
        "name": "GUTIERREZ DE HUACO ISABEL ROSA",
        "address": "MCAL CASTILLA 1403 SANTA ROSA MNO MELGAR",
        "lat": "-16.408218",
        "lng": "-71.507961",
        "type": "BODEGA",
        "distrito": "MARIANO MELGAR",
        "provincia": "AREQUIPA",
        "celda": "Base General"
    },
    {
        "ciudad": "AREQUIPA",
        "name": "TRANSPORTES SAN MARTIN DE PORRES E.",
        "address": "CA ALMONTE CA VILLA SECA",
        "lat": "-16.407789",
        "lng": "-71.55422",
        "type": "BODEGA",
        "distrito": "YANAHUARA",
        "provincia": "AREQUIPA",
        "celda": "Base General"
    },
    {
        "ciudad": "AREQUIPA",
        "name": "NIEBLES FARFAN KARLA JIMENA",
        "address": "CALLE MONTREAL 118",
        "lat": "-16.40776",
        "lng": "-71.516483",
        "type": "BODEGA",
        "distrito": "AREQUIPA",
        "provincia": "AREQUIPA",
        "celda": "Base General"
    },
    {
        "ciudad": "AREQUIPA",
        "name": "MAMANI ORCCORI BARBARA ERIKA",
        "address": "MZA. H LOTE. 5 URB. TAHUAYCANI",
        "lat": "-16.407555",
        "lng": "-71.554289",
        "type": "BODEGA",
        "distrito": "SACHACA",
        "provincia": "AREQUIPA",
        "celda": "Base General"
    },
    {
        "ciudad": "AREQUIPA",
        "name": "VIZCARRA SAYCO NOEMI VIANEY",
        "address": "JUAN DE DIOS SALAZAR 121 LA PERLA",
        "lat": "-16.407471",
        "lng": "-71.529265",
        "type": "BODEGA",
        "distrito": "AREQUIPA",
        "provincia": "AREQUIPA",
        "celda": "Base General"
    },
    {
        "ciudad": "AREQUIPA",
        "name": "ALCCA NEGRON TEODOCIA",
        "address": "COMANDANTE CANADA 210",
        "lat": "-16.40726",
        "lng": "-71.513096",
        "type": "BODEGA",
        "distrito": "MARIANO MELGAR",
        "provincia": "AREQUIPA",
        "celda": "Base General"
    },
    {
        "ciudad": "AREQUIPA",
        "name": "PONCE BARRETO STEPHANIE ALESSANDRA",
        "address": "CA ATENAS 209",
        "lat": "-16.407146",
        "lng": "-71.50747",
        "type": "BODEGA",
        "distrito": "MARIANO MELGAR",
        "provincia": "AREQUIPA",
        "celda": "Base General"
    },
    {
        "ciudad": "AREQUIPA",
        "name": "SOLEDAD TURPO MARIA",
        "address": "CA. MAYTA CAPAC 401",
        "lat": "-16.407101",
        "lng": "-71.533221",
        "type": "BODEGA",
        "distrito": "AREQUIPA",
        "provincia": "AREQUIPA",
        "celda": "Base General"
    },
    {
        "ciudad": "AREQUIPA",
        "name": "TORRES VARGAS BRENDA DELICIA",
        "address": "AV LIMA 508 VALLECITO",
        "lat": "-16.406801",
        "lng": "-71.543467",
        "type": "BODEGA",
        "distrito": "AREQUIPA",
        "provincia": "AREQUIPA",
        "celda": "Base General"
    },
    {
        "ciudad": "AREQUIPA",
        "name": "CONDORI CCAMA OMAR EULOGIO",
        "address": "COMANDANTE CANGA 407",
        "lat": "-16.4068",
        "lng": "-71.511658",
        "type": "BODEGA",
        "distrito": "MARIANO MELGAR",
        "provincia": "AREQUIPA",
        "celda": "Base General"
    },
    {
        "ciudad": "AREQUIPA",
        "name": "MAMANI QUISPE ELIZABETH",
        "address": "COMANDANTE CANGA 403 MNO MELGAR",
        "lat": "-16.406785",
        "lng": "-71.511725",
        "type": "BODEGA",
        "distrito": "MARIANO MELGAR",
        "provincia": "AREQUIPA",
        "celda": "Base General"
    },
    {
        "ciudad": "AREQUIPA",
        "name": "SILVA NUÑEZ CATHERINE MARIA LIZBETH",
        "address": "AV SAN JERONIMO 448 C",
        "lat": "-16.406738",
        "lng": "-71.547624",
        "type": "BODEGA",
        "distrito": "YANAHUARA",
        "provincia": "AREQUIPA",
        "celda": "Base General"
    },
    {
        "ciudad": "AREQUIPA",
        "name": "HUAMANI HUAYLLANI GUADALUPE",
        "address": "AV LIMA 507",
        "lat": "-16.406649",
        "lng": "-71.543564",
        "type": "BODEGA",
        "distrito": "AREQUIPA",
        "provincia": "AREQUIPA",
        "celda": "Base General"
    },
    {
        "ciudad": "AREQUIPA",
        "name": "SOTO QUISPE JOHN",
        "address": "MZ. B LT. 1 URB. QUINTA TAHUAYCANI",
        "lat": "-16.406579",
        "lng": "-71.556489",
        "type": "MINIMARKET",
        "distrito": "SACHACA",
        "provincia": "AREQUIPA",
        "celda": "Base General"
    },
    {
        "ciudad": "AREQUIPA",
        "name": "BENAVENTE CALISAYA MARIA DEL CARMEN",
        "address": "CAL ALVAREZ THOMAS NRO 591 A ORMENO",
        "lat": "-16.406447",
        "lng": "-71.539378",
        "type": "BODEGA",
        "distrito": "AREQUIPA",
        "provincia": "AREQUIPA",
        "celda": "Base General"
    },
    {
        "ciudad": "AREQUIPA",
        "name": "SUASACA BELIZARIO FLORA YOLANDA",
        "address": "URB TAHUAYCANI J 33",
        "lat": "-16.406407",
        "lng": "-71.556361",
        "type": "MINIMARKET",
        "distrito": "SACHACA",
        "provincia": "AREQUIPA",
        "celda": "Base General"
    },
    {
        "ciudad": "AREQUIPA",
        "name": "QUISPE OVIEDO DAYANA MERCEDES",
        "address": "CA GOMEZ SANCHEZ NRO 301",
        "lat": "-16.406284",
        "lng": "-71.543407",
        "type": "BODEGA",
        "distrito": "AREQUIPA",
        "provincia": "AREQUIPA",
        "celda": "Base General"
    },
    {
        "ciudad": "AREQUIPA",
        "name": "KETTHY YESSENIA ESCALANTE PAINO",
        "address": "COOPERATIVA UNIVERSITARIA MZE LOTE2",
        "lat": "-16.406277",
        "lng": "-71.517278",
        "type": "BODEGA",
        "distrito": "AREQUIPA",
        "provincia": "AREQUIPA",
        "celda": "Base General"
    },
    {
        "ciudad": "AREQUIPA",
        "name": "HUAMAN PEREZ LIDIA",
        "address": "AV SALAVERRY NRO 209 CERCADOALAVERRY CERCA BCP",
        "lat": "-16.40611",
        "lng": "-71.539734",
        "type": "BODEGA",
        "distrito": "AREQUIPA",
        "provincia": "AREQUIPA",
        "celda": "Base General"
    },
    {
        "ciudad": "AREQUIPA",
        "name": "VALENCIA URACJAHUA LIZBETH MARIA",
        "address": "CA 9 DE DICIEMBRE URB IV CENTE",
        "lat": "-16.406099",
        "lng": "-71.53305",
        "type": "BODEGA",
        "distrito": "AREQUIPA",
        "provincia": "AREQUIPA",
        "celda": "Base General"
    },
    {
        "ciudad": "AREQUIPA",
        "name": "VALDIVIA GRANDA YOLANDA ASUNTA",
        "address": "CAL. MATARANI NRO. 30 URB. MUNICIPAL",
        "lat": "-16.405845",
        "lng": "-71.530198",
        "type": "PANADERIAS",
        "distrito": "AREQUIPA",
        "provincia": "AREQUIPA",
        "celda": "Base General"
    },
    {
        "ciudad": "AREQUIPA",
        "name": "CCOSI HALANOCCA GERVACIO",
        "address": "CALLE VICTOR LIRA 251",
        "lat": "-16.405685",
        "lng": "-71.531689",
        "type": "BODEGA",
        "distrito": "AREQUIPA",
        "provincia": "AREQUIPA",
        "celda": "Base General"
    },
    {
        "ciudad": "AREQUIPA",
        "name": "MARDINI MORGAN VIDAL",
        "address": "CALLE VICTOR LIRA 255 B",
        "lat": "-16.405597",
        "lng": "-71.531761",
        "type": "BODEGA",
        "distrito": "AREQUIPA",
        "provincia": "AREQUIPA",
        "celda": "Base General"
    },
    {
        "ciudad": "AREQUIPA",
        "name": "TACO CAZANI VICTOR RAUL",
        "address": "CA JOSE SANTOS CHOCANO108",
        "lat": "-16.40491",
        "lng": "-71.547298",
        "type": "BODEGA",
        "distrito": "YANAHUARA",
        "provincia": "AREQUIPA",
        "celda": "Base General"
    },
    {
        "ciudad": "AREQUIPA",
        "name": "DURAN APAZA GABRIEL ANTONIO",
        "address": "PROLG 2 DE MAYO 118 TDA 3",
        "lat": "-16.404473",
        "lng": "-71.535615",
        "type": "BODEGA",
        "distrito": "AREQUIPA",
        "provincia": "AREQUIPA",
        "celda": "Base General"
    },
    {
        "ciudad": "AREQUIPA",
        "name": "PIÑA VALERIANO LIZ ANGELICA",
        "address": "MARIA NIEVES BUSTAMANTE 100",
        "lat": "-16.404213",
        "lng": "-71.546461",
        "type": "BODEGA",
        "distrito": "ALTO SELVA ALEGRE",
        "provincia": "AREQUIPA",
        "celda": "Base General"
    },
    {
        "ciudad": "AREQUIPA",
        "name": "MAMANI HANCCO RONALD VIDAL",
        "address": "GOMEZ DE LA TORRE 318 LA NEGRITA",
        "lat": "-16.403586",
        "lng": "-71.520022",
        "type": "BODEGA",
        "distrito": "AREQUIPA",
        "provincia": "AREQUIPA",
        "celda": "Base General"
    },
    {
        "ciudad": "AREQUIPA",
        "name": "ALANOCCA ORTIZ JHON ANTONY",
        "address": "AV VICTOR ANDRES BELAUNDE 526",
        "lat": "-16.403469",
        "lng": "-71.551894",
        "type": "BODEGA",
        "distrito": "YANAHUARA",
        "provincia": "AREQUIPA",
        "celda": "Base General"
    },
    {
        "ciudad": "AREQUIPA",
        "name": "SOTO VALENCIA ALVARO JAVIER",
        "address": "CA. PAUCARPATA NRO. 146",
        "lat": "-16.403308",
        "lng": "-71.52886",
        "type": "BODEGA",
        "distrito": "AREQUIPA",
        "provincia": "AREQUIPA",
        "celda": "Base General"
    },
    {
        "ciudad": "AREQUIPA",
        "name": "PEREZ HUAMAN MARLENI",
        "address": "CALLE PAUCARPATA 136",
        "lat": "-16.403298",
        "lng": "-71.528826",
        "type": "BODEGA",
        "distrito": "AREQUIPA",
        "provincia": "AREQUIPA",
        "celda": "Base General"
    },
    {
        "ciudad": "AREQUIPA",
        "name": "PAREDES CANAZA CRISTIAN HAROLD",
        "address": "AV VICTOR ANDRES BELAUNDE B 19",
        "lat": "-16.403226",
        "lng": "-71.551473",
        "type": "BODEGA",
        "distrito": "AREQUIPA",
        "provincia": "AREQUIPA",
        "celda": "Base General"
    },
    {
        "ciudad": "AREQUIPA",
        "name": "MENDOZA FLORES GUILLERMO PEDRO",
        "address": "AV. VICTOR ANDRES BELAUNDE 525",
        "lat": "-16.402843",
        "lng": "-71.551461",
        "type": "BODEGA",
        "distrito": "YANAHUARA",
        "provincia": "AREQUIPA",
        "celda": "Base General"
    },
    {
        "ciudad": "AREQUIPA",
        "name": "VILCA RAMIREZ CARLA PAMELA",
        "address": "LORETO 320",
        "lat": "-16.402521",
        "lng": "-71.545182",
        "type": "BODEGA",
        "distrito": "AREQUIPA",
        "provincia": "AREQUIPA",
        "celda": "Base General"
    },
    {
        "ciudad": "AREQUIPA",
        "name": "CARRION PORTILLA HILDA",
        "address": "CAL. DEAN VALDIVIA NRO. 414",
        "lat": "-16.40247",
        "lng": "-71.53223",
        "type": "BODEGA",
        "distrito": "AREQUIPA",
        "provincia": "AREQUIPA",
        "celda": "Base General"
    },
    {
        "ciudad": "AREQUIPA",
        "name": "PEREZ PACORI RIGAN ELOY",
        "address": "AV. SAN MARTIN NRO. 113 VALLECITO",
        "lat": "-16.402418",
        "lng": "-71.540482",
        "type": "BODEGA",
        "distrito": "AREQUIPA",
        "provincia": "AREQUIPA",
        "celda": "Base General"
    },
    {
        "ciudad": "AREQUIPA",
        "name": "TACUSI CUNO MARCO ANTONIO",
        "address": "CA. OCTAVIO MUÑOZ NAJAR NRO. 258",
        "lat": "-16.40229",
        "lng": "-71.529632",
        "type": "BODEGA",
        "distrito": "AREQUIPA",
        "provincia": "AREQUIPA",
        "celda": "Base General"
    },
    {
        "ciudad": "AREQUIPA",
        "name": "PARISACA APAZA MIGUEL",
        "address": "CA RICARDO PALMA 213 UNIV. CATOLICA",
        "lat": "-16.402262",
        "lng": "-71.546951",
        "type": "BODEGA",
        "distrito": "YANAHUARA",
        "provincia": "AREQUIPA",
        "celda": "Base General"
    },
    {
        "ciudad": "AREQUIPA",
        "name": "ROJAS GONZALES ERICA NATALY",
        "address": "AV VICTOR ANDRÉS BELAUNDE MZ A LTE",
        "lat": "-16.402123",
        "lng": "-71.55098",
        "type": "BODEGA",
        "distrito": "YANAHUARA",
        "provincia": "AREQUIPA",
        "celda": "Base General"
    },
    {
        "ciudad": "AREQUIPA",
        "name": "PUÑO QUISPE JUAN SIXTO",
        "address": "AV SAN MARTIN 107 C AREQUIPA",
        "lat": "-16.40207",
        "lng": "-71.54025",
        "type": "BODEGA",
        "distrito": "AREQUIPA",
        "provincia": "AREQUIPA",
        "celda": "Base General"
    },
    {
        "ciudad": "AREQUIPA",
        "name": "PANADERIA PASTELERIA BODEGA PANIART",
        "address": "CONSUELO 107",
        "lat": "-16.402032",
        "lng": "-71.536869",
        "type": "PANADERIAS",
        "distrito": "AREQUIPA",
        "provincia": "AREQUIPA",
        "celda": "Base General"
    },
    {
        "ciudad": "AREQUIPA",
        "name": "VALERO PUMA CARLOS JAVIER",
        "address": "CAL.PERU NRO. 302A",
        "lat": "-16.401954",
        "lng": "-71.533824",
        "type": "BODEGA",
        "distrito": "AREQUIPA",
        "provincia": "AREQUIPA",
        "celda": "Base General"
    },
    {
        "ciudad": "AREQUIPA",
        "name": "FLORES SAHUANAY OFELIA JULIA",
        "address": "CONSUELO 102 A",
        "lat": "-16.401857",
        "lng": "-71.536545",
        "type": "BODEGA",
        "distrito": "AREQUIPA",
        "provincia": "AREQUIPA",
        "celda": "Base General"
    },
    {
        "ciudad": "AREQUIPA",
        "name": "YUCRA LARICO ALBERTO LUCIO",
        "address": "CONSUELO 102 A",
        "lat": "-16.401857",
        "lng": "-71.536545",
        "type": "BODEGA",
        "distrito": "AREQUIPA",
        "provincia": "AREQUIPA",
        "celda": "Base General"
    },
    {
        "ciudad": "AREQUIPA",
        "name": "VENERO VARGAS WILLY",
        "address": "AV LA SALLE 132C",
        "lat": "-16.401795",
        "lng": "-71.524587",
        "type": "BODEGA",
        "distrito": "AREQUIPA",
        "provincia": "AREQUIPA",
        "celda": "Base General"
    },
    {
        "ciudad": "AREQUIPA",
        "name": "MULTISERVICIOS MILY ROSE E.I.R.L.",
        "address": "CAL. GARCILAZO DE LA VEGA NRO. 208URB. LA QUINTA",
        "lat": "-16.401785",
        "lng": "-71.547671",
        "type": "BODEGA",
        "distrito": "AREQUIPA",
        "provincia": "AREQUIPA",
        "celda": "Base General"
    },
    {
        "ciudad": "AREQUIPA",
        "name": "VALENCIA CESPEDES ANA IBETH",
        "address": "MZ D LT 22 URB INDEPENDENCIA AMERIC",
        "lat": "-16.401579",
        "lng": "-71.550991",
        "type": "BODEGA",
        "distrito": "YANAHUARA",
        "provincia": "AREQUIPA",
        "celda": "Base General"
    },
    {
        "ciudad": "AREQUIPA",
        "name": "ALA CCACYAVILCA FRANCISCA",
        "address": "CA GARCILAZO DE LA VEGA 200",
        "lat": "-16.401225",
        "lng": "-71.547432",
        "type": "BODEGA",
        "distrito": "YANAHUARA",
        "provincia": "AREQUIPA",
        "celda": "Base General"
    },
    {
        "ciudad": "AREQUIPA",
        "name": "PINAZO DIAZ MARLENI PILAR",
        "address": "CA OCTAVIO MUNOZ NAJAR 151",
        "lat": "-16.401033",
        "lng": "-71.530818",
        "type": "BODEGA",
        "distrito": "AREQUIPA",
        "provincia": "AREQUIPA",
        "celda": "Base General"
    },
    {
        "ciudad": "AREQUIPA",
        "name": "MANCHEGO TORRES GIANCARLO ALEXANDER",
        "address": "MZA. B LOTE. 1 URB. LOS ANGELES DEUMACOLLO CALLE",
        "lat": "-16.400924",
        "lng": "-71.545476",
        "type": "BODEGA",
        "distrito": "YANAHUARA",
        "provincia": "AREQUIPA",
        "celda": "Base General"
    },
    {
        "ciudad": "AREQUIPA",
        "name": "ALVARADO YUCRA ROSALIO",
        "address": "CAL. SUCRE NRO. 331",
        "lat": "-16.400764",
        "lng": "-71.5396",
        "type": "BODEGA",
        "distrito": "AREQUIPA",
        "provincia": "AREQUIPA",
        "celda": "Base General"
    },
    {
        "ciudad": "AREQUIPA",
        "name": "CAYANI ITME MARIAN DEL CARMEN",
        "address": "CA CONSUELO 431",
        "lat": "-16.400625",
        "lng": "-71.540001",
        "type": "BODEGA",
        "distrito": "AREQUIPA",
        "provincia": "AREQUIPA",
        "celda": "Base General"
    },
    {
        "ciudad": "AREQUIPA",
        "name": "QUISPE QUISPE NELINDA",
        "address": "OCTAVIO MUÑOZ NAJAR 130A",
        "lat": "-16.400574",
        "lng": "-71.531075",
        "type": "BODEGA",
        "distrito": "AREQUIPA",
        "provincia": "AREQUIPA",
        "celda": "Base General"
    },
    {
        "ciudad": "AREQUIPA",
        "name": "FLORES HALANOCCA JOSEFINA",
        "address": "CA. BALLON FARFAN 505",
        "lat": "-16.400491",
        "lng": "-71.549329",
        "type": "BODEGA",
        "distrito": "AREQUIPA",
        "provincia": "AREQUIPA",
        "celda": "Base General"
    },
    {
        "ciudad": "AREQUIPA",
        "name": "QUISPE VEGA MOISES MANUEL",
        "address": "CL BALLON FARFAN 600 UMACOLLO",
        "lat": "-16.400275",
        "lng": "-71.54942",
        "type": "BODEGA",
        "distrito": "YANAHUARA",
        "provincia": "AREQUIPA",
        "celda": "Base General"
    },
    {
        "ciudad": "AREQUIPA",
        "name": "ARENAS HERRERA TERESA JESUS",
        "address": "AV. VICTOR ANDRES BELAUNDE NRO. 313",
        "lat": "-16.400023",
        "lng": "-71.549688",
        "type": "BODEGA",
        "distrito": "YANAHUARA",
        "provincia": "AREQUIPA",
        "celda": "Base General"
    },
    {
        "ciudad": "AREQUIPA",
        "name": "PARI VEGA MELISSA LINN",
        "address": "CALLE LOS TULIPANES 113 URB PRIMAVERA",
        "lat": "-16.399495",
        "lng": "-71.549887",
        "type": "BODEGA",
        "distrito": "YANAHUARA",
        "provincia": "AREQUIPA",
        "celda": "Base General"
    },
    {
        "ciudad": "AREQUIPA",
        "name": "LABRA SUCA RENE",
        "address": "CA LAS DALIAS 109 YANAHUARA",
        "lat": "-16.398721",
        "lng": "-71.551606",
        "type": "BODEGA",
        "distrito": "YANAHUARA",
        "provincia": "AREQUIPA",
        "celda": "Base General"
    },
    {
        "ciudad": "AREQUIPA",
        "name": "CHIPANA QUISPE JAVIER VIDAL",
        "address": "CA CRUZ VERDE 203",
        "lat": "-16.398596",
        "lng": "-71.539691",
        "type": "BODEGA",
        "distrito": "AREQUIPA",
        "provincia": "AREQUIPA",
        "celda": "Base General"
    },
    {
        "ciudad": "AREQUIPA",
        "name": "PEZO ASIPALI MAYLI",
        "address": "PUENTE BOLOGNESI NR 205",
        "lat": "-16.398492",
        "lng": "-71.538809",
        "type": "BODEGA",
        "distrito": "AREQUIPA",
        "provincia": "AREQUIPA",
        "celda": "Base General"
    },
    {
        "ciudad": "AREQUIPA",
        "name": "RAMOS CHAQUILLA HAYNE SUSY",
        "address": "CA TACNA N 533 MIRAFLORES",
        "lat": "-16.398491",
        "lng": "-71.52249",
        "type": "BODEGA",
        "distrito": "MIRAFLORES",
        "provincia": "AREQUIPA",
        "celda": "Base General"
    },
    {
        "ciudad": "AREQUIPA",
        "name": "CRUCES ABARCA ANA ALEJANDRA",
        "address": "CALLE CHULLO MZ A LT 16",
        "lat": "-16.398373",
        "lng": "-71.552147",
        "type": "BODEGA",
        "distrito": "YANAHUARA",
        "provincia": "AREQUIPA",
        "celda": "Base General"
    },
    {
        "ciudad": "AREQUIPA",
        "name": "JUADIE S.R.L.",
        "address": "URBANIZACION LAS CASUARINAS F 2",
        "lat": "-16.398325",
        "lng": "-71.552802",
        "type": "BODEGA",
        "distrito": "YANAHUARA",
        "provincia": "AREQUIPA",
        "celda": "Base General"
    },
    {
        "ciudad": "AREQUIPA",
        "name": "ESCOBEDO RIVERA SUZANA LILIA",
        "address": "CALLE PTE.BOLOGNESI 321",
        "lat": "-16.398277",
        "lng": "-71.539907",
        "type": "BODEGA",
        "distrito": "AREQUIPA",
        "provincia": "AREQUIPA",
        "celda": "Base General"
    },
    {
        "ciudad": "AREQUIPA",
        "name": "CHILO CUEVA EDWIN JUNER",
        "address": "CRUZ VERDE 119 B",
        "lat": "-16.398192",
        "lng": "-71.53942",
        "type": "BODEGA",
        "distrito": "AREQUIPA",
        "provincia": "AREQUIPA",
        "celda": "Base General"
    },
    {
        "ciudad": "AREQUIPA",
        "name": "ALA CARRIZALES ANA GABRIELA",
        "address": "URB ENTEL PERU MZ D LT 5",
        "lat": "-16.39818",
        "lng": "-71.55266",
        "type": "BODEGA",
        "distrito": "YANAHUARA",
        "provincia": "AREQUIPA",
        "celda": "Base General"
    },
    {
        "ciudad": "AREQUIPA",
        "name": "OTAZU AHUANLLA RENE VALENTIN",
        "address": "CALLE ESPINAR 325 MIRAFLORES",
        "lat": "-16.397755",
        "lng": "-71.519213",
        "type": "BODEGA",
        "distrito": "MIRAFLORES",
        "provincia": "AREQUIPA",
        "celda": "Base General"
    },
    {
        "ciudad": "AREQUIPA",
        "name": "COMERCIAL LIDIA E.I.R.L",
        "address": "CA GARAYCOCHEA 216",
        "lat": "-16.397754",
        "lng": "-71.544343",
        "type": "BODEGA",
        "distrito": "YANAHUARA",
        "provincia": "AREQUIPA",
        "celda": "Base General"
    },
    {
        "ciudad": "AREQUIPA",
        "name": "FIGUEROA CALDERON CARMEN NICOLS",
        "address": "CALLE GARAYCOCHEA 228 MISERICORDIASEÑOR",
        "lat": "-16.397521",
        "lng": "-71.544933",
        "type": "BODEGA",
        "distrito": "YANAHUARA",
        "provincia": "AREQUIPA",
        "celda": "Base General"
    },
    {
        "ciudad": "AREQUIPA",
        "name": "MALAGA SAN ROMAN GIULIANA",
        "address": "URB PIEDRA SANTA B 7 I ETAPA",
        "lat": "-16.397474",
        "lng": "-71.55525",
        "type": "BODEGA",
        "distrito": "YANAHUARA",
        "provincia": "AREQUIPA",
        "celda": "Base General"
    },
    {
        "ciudad": "AREQUIPA",
        "name": "CUCHUIRUME BELLIDO EDILBERTO AGAPIT",
        "address": "URB LA ESTANCIA NRO S N",
        "lat": "-16.396304",
        "lng": "-71.550094",
        "type": "BODEGA",
        "distrito": "YANAHUARA",
        "provincia": "AREQUIPA",
        "celda": "Base General"
    },
    {
        "ciudad": "AREQUIPA",
        "name": "CONDORI CUAYLA DANITZA VERONICA",
        "address": "COOP. VICTOR ANDRES BELAUNDE MZ ILT.3",
        "lat": "-16.396289",
        "lng": "-71.55311",
        "type": "BODEGA",
        "distrito": "YANAHUARA",
        "provincia": "AREQUIPA",
        "celda": "Base General"
    },
    {
        "ciudad": "AREQUIPA",
        "name": "SILVA SILVA HUBERT RUDI",
        "address": "COOP VICTOR A.BELAUNDE I 2B",
        "lat": "-16.39627",
        "lng": "-71.553043",
        "type": "BODEGA",
        "distrito": "YANAHUARA",
        "provincia": "AREQUIPA",
        "celda": "Base General"
    },
    {
        "ciudad": "AREQUIPA",
        "name": "VEGA DE VELASQUEZ ANA MARITZA",
        "address": "AV UNION NRO 531 A MIRAFLORES",
        "lat": "-16.396266",
        "lng": "-71.520146",
        "type": "BODEGA",
        "distrito": "MIRAFLORES",
        "provincia": "AREQUIPA",
        "celda": "Base General"
    },
    {
        "ciudad": "AREQUIPA",
        "name": "HUAMANI LASTARRIA ROSALINDA MERCEDE",
        "address": "URB. PIEDRA SANTA II ETAPA V 14",
        "lat": "-16.396192",
        "lng": "-71.556231",
        "type": "BODEGA",
        "distrito": "YANAHUARA",
        "provincia": "AREQUIPA",
        "celda": "Base General"
    },
    {
        "ciudad": "AREQUIPA",
        "name": "CHUQUIMAMANI ORTIZ TERESA CECILIA",
        "address": "AV SAN MARTIN N309",
        "lat": "-16.395828",
        "lng": "-71.524263",
        "type": "BODEGA",
        "distrito": "MIRAFLORES",
        "provincia": "AREQUIPA",
        "celda": "Base General"
    },
    {
        "ciudad": "AREQUIPA",
        "name": "RIVERA MOYA ROCIO MILAGROS",
        "address": "VICTOR A BELAUNDE MZ D LT16 TDA2 AV METROPOLITANA",
        "lat": "-16.395625",
        "lng": "-71.554489",
        "type": "BODEGA",
        "distrito": "YANAHUARA",
        "provincia": "AREQUIPA",
        "celda": "Base General"
    },
    {
        "ciudad": "AREQUIPA",
        "name": "GUERRA QUINO LUZVERLI",
        "address": "CA ZAMACOLA MZN L LT 14",
        "lat": "-16.395606",
        "lng": "-71.545662",
        "type": "BODEGA",
        "distrito": "YANAHUARA",
        "provincia": "AREQUIPA",
        "celda": "Base General"
    },
    {
        "ciudad": "AREQUIPA",
        "name": "MANSILLA RIVEROS EMILIA AMPARO",
        "address": "URB ANTONIO RAIMONDI L4 AV ZAMACOLA",
        "lat": "-16.395597",
        "lng": "-71.545756",
        "type": "BODEGA",
        "distrito": "YANAHUARA",
        "provincia": "AREQUIPA",
        "celda": "Base General"
    },
    {
        "ciudad": "AREQUIPA",
        "name": "GALLEGOS HUAMAN JOSE MIGUEL",
        "address": "URB. VALENCIA B 04",
        "lat": "-16.3955",
        "lng": "-71.548697",
        "type": "BODEGA",
        "distrito": "YANAHUARA",
        "provincia": "AREQUIPA",
        "celda": "Base General"
    },
    {
        "ciudad": "AREQUIPA",
        "name": "MAMANI TIPO JENNY VICTORIA",
        "address": "AV ZAMACOLA 210 URB ANTONIO RAY",
        "lat": "-16.395482",
        "lng": "-71.545841",
        "type": "BODEGA",
        "distrito": "YANAHUARA",
        "provincia": "AREQUIPA",
        "celda": "Base General"
    },
    {
        "ciudad": "AREQUIPA",
        "name": "HUALLPA ARISMENDI CARMEN BEATRIZ",
        "address": "PUNO 303 MIRAFLORES",
        "lat": "-16.39548",
        "lng": "-71.523759",
        "type": "BODEGA",
        "distrito": "MIRAFLORES",
        "provincia": "AREQUIPA",
        "celda": "Base General"
    },
    {
        "ciudad": "AREQUIPA",
        "name": "SOTO DURAND ALEJANDRA YSABEL",
        "address": "CALLE VESTERIO 253",
        "lat": "-16.395314",
        "lng": "-71.543531",
        "type": "BODEGA",
        "distrito": "YANAHUARA",
        "provincia": "AREQUIPA",
        "celda": "Base General"
    },
    {
        "ciudad": "AREQUIPA",
        "name": "MAMANI MAMANI MIGUEL ANTONIO",
        "address": "PASAJE SOL DE PUNO NRO 113",
        "lat": "-16.395215",
        "lng": "-71.526347",
        "type": "BODEGA",
        "distrito": "MIRAFLORES",
        "provincia": "AREQUIPA",
        "celda": "Base General"
    },
    {
        "ciudad": "AREQUIPA",
        "name": "QUISPE ZINANYUCA MARIELA",
        "address": "CA SAN ANTONIO 302 MIRAFLORES",
        "lat": "-16.395178",
        "lng": "-71.52692",
        "type": "BODEGA",
        "distrito": "MIRAFLORES",
        "provincia": "AREQUIPA",
        "celda": "Base General"
    },
    {
        "ciudad": "AREQUIPA",
        "name": "TAPIA CASTRO VALERY MARIA FERNANDA",
        "address": "URB. PIEDRA SANTA II ETAPA Y 1",
        "lat": "-16.395165",
        "lng": "-71.555275",
        "type": "BODEGA",
        "distrito": "YANAHUARA",
        "provincia": "AREQUIPA",
        "celda": "Base General"
    },
    {
        "ciudad": "AREQUIPA",
        "name": "ZEGARRA CONDORI MICHELL ALFREDO",
        "address": "MOQUEGUA 106 MIRAFLORES",
        "lat": "-16.394914",
        "lng": "-71.525771",
        "type": "BODEGA",
        "distrito": "MIRAFLORES",
        "provincia": "AREQUIPA",
        "celda": "Base General"
    },
    {
        "ciudad": "AREQUIPA",
        "name": "BERDEJO ACHAHUANCO DE DIAZ JULIA",
        "address": "CA AYACUCHO 100A CERCADO",
        "lat": "-16.394895",
        "lng": "-71.533333",
        "type": "BODEGA",
        "distrito": "AREQUIPA",
        "provincia": "AREQUIPA",
        "celda": "Base General"
    },
    {
        "ciudad": "AREQUIPA",
        "name": "SUCAPUCA SUCAPUCA MATIAS",
        "address": "PASAJE SOL DE PUNO 101 MIRAFLORES",
        "lat": "-16.39486",
        "lng": "-71.525843",
        "type": "BODEGA",
        "distrito": "MIRAFLORES",
        "provincia": "AREQUIPA",
        "celda": "Base General"
    },
    {
        "ciudad": "AREQUIPA",
        "name": "MOTTA URDAY ROCIO NOELIA",
        "address": "PUENTE ARNAO 605 MIRAFLORES",
        "lat": "-16.394848",
        "lng": "-71.518935",
        "type": "BODEGA",
        "distrito": "MIRAFLORES",
        "provincia": "AREQUIPA",
        "celda": "Base General"
    },
    {
        "ciudad": "AREQUIPA",
        "name": "SULCA MAMANI ROCIO ISABEL",
        "address": "CA BEATERIO 279",
        "lat": "-16.394816",
        "lng": "-71.543973",
        "type": "BODEGA",
        "distrito": "AREQUIPA",
        "provincia": "AREQUIPA",
        "celda": "Base General"
    },
    {
        "ciudad": "AREQUIPA",
        "name": "QUISPE HUANCA YENY ROXANA",
        "address": "PARQUE LUNA PIZARRO TDA NRO 200A",
        "lat": "-16.394783",
        "lng": "-71.525594",
        "type": "BODEGA",
        "distrito": "MIRAFLORES",
        "provincia": "AREQUIPA",
        "celda": "Base General"
    },
    {
        "ciudad": "AREQUIPA",
        "name": "PUMA MORA ANDRES",
        "address": "CA PERAL 511 B",
        "lat": "-16.394745",
        "lng": "-71.531063",
        "type": "BODEGA",
        "distrito": "AREQUIPA",
        "provincia": "AREQUIPA",
        "celda": "Base General"
    },
    {
        "ciudad": "AREQUIPA",
        "name": "VASQUEZ AGUILAR ANTONIO",
        "address": "AV. PROGRESO 707 MIRAFLORES",
        "lat": "-16.394374",
        "lng": "-71.521252",
        "type": "BODEGA",
        "distrito": "MIRAFLORES",
        "provincia": "AREQUIPA",
        "celda": "Base General"
    },
    {
        "ciudad": "AREQUIPA",
        "name": "CESPEDES GODOY JULIA",
        "address": "MIGUEL GRAU 747 MIRAFLORES",
        "lat": "-16.394245",
        "lng": "-71.517131",
        "type": "PANADERIAS",
        "distrito": "MIRAFLORES",
        "provincia": "AREQUIPA",
        "celda": "Base General"
    },
    {
        "ciudad": "AREQUIPA",
        "name": "AGUILAR PACHECO AGUSTINA HORTENCIA",
        "address": "CA MIGUEL GRAU N 743 MIRAFLORES",
        "lat": "-16.394231",
        "lng": "-71.517033",
        "type": "BODEGA",
        "distrito": "MIRAFLORES",
        "provincia": "AREQUIPA",
        "celda": "Base General"
    },
    {
        "ciudad": "AREQUIPA",
        "name": "CASTRO PACHERRE ALEX GERMAN",
        "address": "AV. QUIÑONES MZA. F LOTE. 13 URB.LOS CEDROS",
        "lat": "-16.39403",
        "lng": "-71.548739",
        "type": "BODEGA",
        "distrito": "YANAHUARA",
        "provincia": "AREQUIPA",
        "celda": "Base General"
    },
    {
        "ciudad": "AREQUIPA",
        "name": "OVIEDO QUISPE RAQUEL",
        "address": "CA. SANTA CATALINA NRO. 500",
        "lat": "-16.393886",
        "lng": "-71.535559",
        "type": "BODEGA",
        "distrito": "AREQUIPA",
        "provincia": "AREQUIPA",
        "celda": "Base General"
    },
    {
        "ciudad": "AREQUIPA",
        "name": "TICONA DE YAMPARA RINA ADELA",
        "address": "CA EL FILTRO 300 A",
        "lat": "-16.393642",
        "lng": "-71.531596",
        "type": "BODEGA",
        "distrito": "AREQUIPA",
        "provincia": "AREQUIPA",
        "celda": "Base General"
    },
    {
        "ciudad": "AREQUIPA",
        "name": "CCARITA QUISPE SABINA",
        "address": "AV. PROHOGAR 501 TIENDA A MIRAFLORES",
        "lat": "-16.393633",
        "lng": "-71.521072",
        "type": "BODEGA",
        "distrito": "MIRAFLORES",
        "provincia": "AREQUIPA",
        "celda": "Base General"
    },
    {
        "ciudad": "AREQUIPA",
        "name": "PANIURA OSCATA CATALINA JOSEFA",
        "address": "AV. PRO HOGAR 501 B MIRAFLORES",
        "lat": "-16.393571",
        "lng": "-71.521018",
        "type": "BODEGA",
        "distrito": "MIRAFLORES",
        "provincia": "AREQUIPA",
        "celda": "Base General"
    },
    {
        "ciudad": "AREQUIPA",
        "name": "ROJAS TICLLASUCA SONIA",
        "address": "AV. PROHOGAR 516 MIRAFLORES",
        "lat": "-16.393571",
        "lng": "-71.520656",
        "type": "BODEGA",
        "distrito": "MIRAFLORES",
        "provincia": "AREQUIPA",
        "celda": "Base General"
    },
    {
        "ciudad": "AREQUIPA",
        "name": "ENRIQUEZ YCHOCAN ELIANA JESUS",
        "address": "AV UNION 204 MIRAFLORES",
        "lat": "-16.393555",
        "lng": "-71.523959",
        "type": "BODEGA",
        "distrito": "MIRAFLORES",
        "provincia": "AREQUIPA",
        "celda": "Base General"
    },
    {
        "ciudad": "AREQUIPA",
        "name": "OLLACHICA GARCIA MERY DURBI",
        "address": "CALLE PUENTE GRAU 327",
        "lat": "-16.393547",
        "lng": "-71.536601",
        "type": "BODEGA",
        "distrito": "AREQUIPA",
        "provincia": "AREQUIPA",
        "celda": "Base General"
    },
    {
        "ciudad": "AREQUIPA",
        "name": "QUISPE ROSAS NORCA OLIVIA",
        "address": "CALLE PUENTE GRAU 415",
        "lat": "-16.39347",
        "lng": "-71.536874",
        "type": "BODEGA",
        "distrito": "AREQUIPA",
        "provincia": "AREQUIPA",
        "celda": "Base General"
    },
    {
        "ciudad": "AREQUIPA",
        "name": "MARAZA QUISPE YOVANNA ERIKA",
        "address": "CALLE FILTRO NRO 331",
        "lat": "-16.393421",
        "lng": "-71.53087",
        "type": "BODEGA",
        "distrito": "AREQUIPA",
        "provincia": "AREQUIPA",
        "celda": "Base General"
    },
    {
        "ciudad": "AREQUIPA",
        "name": "ARUNCAJA HUAMANI OLGER DANIEL",
        "address": "CALLE PUENTE GRAU 411",
        "lat": "-16.393353",
        "lng": "-71.536998",
        "type": "BODEGA",
        "distrito": "AREQUIPA",
        "provincia": "AREQUIPA",
        "celda": "Base General"
    },
    {
        "ciudad": "AREQUIPA",
        "name": "PEZO RIVERA JUDITH YOLANDA",
        "address": "SAENZ PEÑA 302 MIRAFLORES",
        "lat": "-16.393316",
        "lng": "-71.526518",
        "type": "BODEGA",
        "distrito": "MIRAFLORES",
        "provincia": "AREQUIPA",
        "celda": "Base General"
    },
    {
        "ciudad": "AREQUIPA",
        "name": "GUILLEN MAMANI BLANCA STEFANI",
        "address": "AV PUENTE ARNAO 1012",
        "lat": "-16.392963",
        "lng": "-71.517084",
        "type": "MINIMARKET",
        "distrito": "MIRAFLORES",
        "provincia": "AREQUIPA",
        "celda": "Base General"
    },
    {
        "ciudad": "AREQUIPA",
        "name": "ARAPA CASTAÑEDA ROSSEMARY",
        "address": "GOLFO 120 MIRAFLORES",
        "lat": "-16.392962",
        "lng": "-71.527406",
        "type": "BODEGA",
        "distrito": "MIRAFLORES",
        "provincia": "AREQUIPA",
        "celda": "Base General"
    },
    {
        "ciudad": "AREQUIPA",
        "name": "HUAMANGA ÑAHUI HERMINIA",
        "address": "CA PAMPITA ZEVALLOS 219",
        "lat": "-16.392903",
        "lng": "-71.54795",
        "type": "BODEGA",
        "distrito": "YANAHUARA",
        "provincia": "AREQUIPA",
        "celda": "Base General"
    },
    {
        "ciudad": "AREQUIPA",
        "name": "POLANCO PAREDES NESTOR ALFREDO",
        "address": "LINO URQUIETA 101 MIRAFLORES",
        "lat": "-16.392853",
        "lng": "-71.526833",
        "type": "BODEGA",
        "distrito": "MIRAFLORES",
        "provincia": "AREQUIPA",
        "celda": "Base General"
    },
    {
        "ciudad": "AREQUIPA",
        "name": "CUTIRE RAMIREZ JUAN CARLOS",
        "address": "CALLE ANTIQUILLA 319",
        "lat": "-16.392696",
        "lng": "-71.545765",
        "type": "BODEGA",
        "distrito": "YANAHUARA",
        "provincia": "AREQUIPA",
        "celda": "Base General"
    },
    {
        "ciudad": "AREQUIPA",
        "name": "RAMOS ROSPIGLIOSI STEPHANI NICOLE",
        "address": "URB LEON XIII I 6",
        "lat": "-16.392669",
        "lng": "-71.548784",
        "type": "BODEGA",
        "distrito": "CAYMA",
        "provincia": "AREQUIPA",
        "celda": "Base General"
    },
    {
        "ciudad": "AREQUIPA",
        "name": "DELGADO HERRERA MARIA LUZ",
        "address": "AV SAN MARTIN 813 MIRAFLORES",
        "lat": "-16.392543",
        "lng": "-71.522071",
        "type": "BODEGA",
        "distrito": "MIRAFLORES",
        "provincia": "AREQUIPA",
        "celda": "Base General"
    },
    {
        "ciudad": "AREQUIPA",
        "name": "CARDENAS REYES MARIA TERESA",
        "address": "AV. PROHOGAR 713 MIRAFLORES",
        "lat": "-16.392356",
        "lng": "-71.519873",
        "type": "BODEGA",
        "distrito": "MIRAFLORES",
        "provincia": "AREQUIPA",
        "celda": "Base General"
    },
    {
        "ciudad": "AREQUIPA",
        "name": "SEGALES CHAVEZ OSWALDO ELEUTERIO",
        "address": "AV PROGRESO 262 MIRAFLORES",
        "lat": "-16.391579",
        "lng": "-71.525067",
        "type": "BODEGA",
        "distrito": "MIRAFLORES",
        "provincia": "AREQUIPA",
        "celda": "Base General"
    },
    {
        "ciudad": "AREQUIPA",
        "name": "DEL AGUILA MURAYARI",
        "address": "CALLE JORGE POLAR 314",
        "lat": "-16.391466",
        "lng": "-71.516222",
        "type": "BODEGA",
        "distrito": "MIRAFLORES",
        "provincia": "AREQUIPA",
        "celda": "Base General"
    },
    {
        "ciudad": "AREQUIPA",
        "name": "VILCA TACO DENCY PABLINA",
        "address": "COOP ABOGADOSMZ A LT.2",
        "lat": "-16.390853",
        "lng": "-71.552238",
        "type": "BODEGA",
        "distrito": "YANAHUARA",
        "provincia": "AREQUIPA",
        "celda": "Base General"
    },
    {
        "ciudad": "AREQUIPA",
        "name": "AYTE TINCO MARIA LUISA",
        "address": "LINO URQUIETA 412 MIRAFLORES",
        "lat": "-16.390683",
        "lng": "-71.524193",
        "type": "MINIMARKET",
        "distrito": "MIRAFLORES",
        "provincia": "AREQUIPA",
        "celda": "Base General"
    },
    {
        "ciudad": "AREQUIPA",
        "name": "PUMA SALAZAR GLADYS",
        "address": "CALVARIO 901A MIRAFLORES",
        "lat": "-16.389886",
        "lng": "-71.522338",
        "type": "BODEGA",
        "distrito": "MIRAFLORES",
        "provincia": "AREQUIPA",
        "celda": "Base General"
    },
    {
        "ciudad": "AREQUIPA",
        "name": "QUISPE AGUILAR GREGORIO",
        "address": "CALLE QUEZADA 200 A",
        "lat": "-16.389869",
        "lng": "-71.541347",
        "type": "BODEGA",
        "distrito": "YANAHUARA",
        "provincia": "AREQUIPA",
        "celda": "Base General"
    },
    {
        "ciudad": "AREQUIPA",
        "name": "CERPA CASTRO ELIZABETH",
        "address": "FRANCISCO MOSTAJO 314 C",
        "lat": "-16.389706",
        "lng": "-71.545075",
        "type": "BODEGA",
        "distrito": "YANAHUARA",
        "provincia": "AREQUIPA",
        "celda": "Base General"
    },
    {
        "ciudad": "AREQUIPA",
        "name": "LUJAN LUJAN DIEGO",
        "address": "LOS ARCES 104 B",
        "lat": "-16.389703",
        "lng": "-71.548475",
        "type": "BODEGA",
        "distrito": "CAYMA",
        "provincia": "AREQUIPA",
        "celda": "Base General"
    },
    {
        "ciudad": "AREQUIPA",
        "name": "FERNANDEZ CORIMAYHUA YSABEL",
        "address": "CALLE LAS BEATOS 117",
        "lat": "-16.389661",
        "lng": "-71.543063",
        "type": "BODEGA",
        "distrito": "YANAHUARA",
        "provincia": "AREQUIPA",
        "celda": "Base General"
    },
    {
        "ciudad": "AREQUIPA",
        "name": "CURAHUA ZUÑIGA MARILU CARMEN",
        "address": "LOS ARCES 104",
        "lat": "-16.389644",
        "lng": "-71.548558",
        "type": "BODEGA",
        "distrito": "CAYMA",
        "provincia": "AREQUIPA",
        "celda": "Base General"
    },
    {
        "ciudad": "AREQUIPA",
        "name": "LAYME QUISPE ISABEL",
        "address": "AV. TARAPACA 308 MIRAFLORES",
        "lat": "-16.389546",
        "lng": "-71.51732",
        "type": "BODEGA",
        "distrito": "MIRAFLORES",
        "provincia": "AREQUIPA",
        "celda": "Base General"
    },
    {
        "ciudad": "AREQUIPA",
        "name": "RAMOS QUISPE LEUCADIA",
        "address": "FRANCISCO MOSTAJO 204 MIRAFLORES",
        "lat": "-16.389343",
        "lng": "-71.516794",
        "type": "BODEGA",
        "distrito": "MIRAFLORES",
        "provincia": "AREQUIPA",
        "celda": "Base General"
    },
    {
        "ciudad": "AREQUIPA",
        "name": "GALVEZ ARCE ZARINA PIERINA",
        "address": "CALLE RODRIGUEZ BALLON NRO 201",
        "lat": "-16.389125",
        "lng": "-71.52128",
        "type": "BODEGA",
        "distrito": "MIRAFLORES",
        "provincia": "AREQUIPA",
        "celda": "Base General"
    },
    {
        "ciudad": "AREQUIPA",
        "name": "SUAREZ ALE ILIA FELIX",
        "address": "AREQUIPA 308",
        "lat": "-16.389096",
        "lng": "-71.526025",
        "type": "BODEGA",
        "distrito": "ALTO SELVA ALEGRE",
        "provincia": "AREQUIPA",
        "celda": "Base General"
    },
    {
        "ciudad": "AREQUIPA",
        "name": "CHIPANA HUACASI OMAR DAVID",
        "address": "CALLE CALVARIO 1101 MIRAFLORES",
        "lat": "-16.389038",
        "lng": "-71.521532",
        "type": "BODEGA",
        "distrito": "MIRAFLORES",
        "provincia": "AREQUIPA",
        "celda": "Base General"
    },
    {
        "ciudad": "AREQUIPA",
        "name": "PINTO BEDREGAL VICTOR DANIEL",
        "address": "URB QUINTA GAMERO MZ A LOTE 03",
        "lat": "-16.388893",
        "lng": "-71.54824",
        "type": "BODEGA",
        "distrito": "CAYMA",
        "provincia": "AREQUIPA",
        "celda": "Base General"
    },
    {
        "ciudad": "AREQUIPA",
        "name": "GRANDA CONCHA JOSE ANTONIO",
        "address": "CALLE ARICA 316",
        "lat": "-16.388834",
        "lng": "-71.542653",
        "type": "BODEGA",
        "distrito": "YANAHUARA",
        "provincia": "AREQUIPA",
        "celda": "Base General"
    },
    {
        "ciudad": "AREQUIPA",
        "name": "SINTI QUISPE YENILDA",
        "address": "AV GOYENECHE NRO 2201 PJ UNION EDIFICADORES MISTI COMISARIA ALTO MISTI",
        "lat": "-16.38872",
        "lng": "-71.514948",
        "type": "BODEGA",
        "distrito": "MIRAFLORES",
        "provincia": "AREQUIPA",
        "celda": "Base General"
    },
    {
        "ciudad": "AREQUIPA",
        "name": "RODRIGUEZ VALDIVIA GUILLERMO HUBERT",
        "address": "LAS DALIAS 100 ASA",
        "lat": "-16.388538",
        "lng": "-71.523869",
        "type": "BODEGA",
        "distrito": "ALTO SELVA ALEGRE",
        "provincia": "AREQUIPA",
        "celda": "Base General"
    },
    {
        "ciudad": "AREQUIPA",
        "name": "BUDIEL DIAZ MARIELA NELIDA",
        "address": "CA. JERUSALEN NRO. 402",
        "lat": "-16.388427",
        "lng": "-71.543647",
        "type": "BODEGA",
        "distrito": "YANAHUARA",
        "provincia": "AREQUIPA",
        "celda": "Base General"
    },