[
    {
        "ciudad": "LIMA",
        "horario": "",
        "name": "CHOQUEYAURI LLIUYACC FLOR MARIA",
        "address": "MZ F06 LT 04 URB MARISCAL CACERES",
        "lat": "-11.954142",
        "lng": "-76.983811",
        "type": "BODEGA",
        "distrito": "SAN JUAN DE LURIGANCHO",
        "provincia": "LIMA",
        "celda": "LIMA"
    },
    {
        "ciudad": "LIMA",
        "horario": "",
        "name": "CONDORPUSA ACHULLI MAGDALENA",
        "address": "MZ L3 LT 02 URB CRUZ DE MOTUPE SANJUAN DE LURIGANCHO",
        "lat": "-11.94316",
        "lng": "-76.975209",
        "type": "BODEGA",
        "distrito": "SAN JUAN DE LURIGANCHO",
        "provincia": "LIMA",
        "celda": "LIMA"
    },
    {
        "ciudad": "LIMA",
        "horario": "",
        "name": "ROJAS OSPINO LINDA JOCAVED",
        "address": "AV LOS POSTES ESTE 164 URB SAN HILARION",
        "lat": "-11.997025",
        "lng": "-77.008336",
        "type": "BODEGA",
        "distrito": "SAN JUAN DE LURIGANCHO",
        "provincia": "LIMA",
        "celda": "LIMA"
    },
    {
        "ciudad": "LIMA",
        "horario": "",
        "name": "VALENTIN JULCA AURORA ESTELA",
        "address": "CL LOS MIRABLES 1208 URB LAS VIOLETAS SAN JUAN DE LURIGA",
        "lat": "-12.015118",
        "lng": "-77.002644",
        "type": "BODEGA",
        "distrito": "SAN JUAN DE LURIGANCHO",
        "provincia": "LIMA",
        "celda": "LIMA"
    },
    {
        "ciudad": "LIMA",
        "horario": "",
        "name": "VARGAS DAMIANO MAURO SOTIL",
        "address": "AV.GRAU NRO.202A",
        "lat": "-12.150317",
        "lng": "-77.0204320",
        "type": "BODEGA",
        "distrito": "BARRANCO",
        "provincia": "LIMA",
        "celda": "LIMA"
    },
    {
        "ciudad": "LIMA",
        "horario": "",
        "name": "EGOAVIL POVIS JORGE RUBEN",
        "address": "LA VICTORIA",
        "lat": "-12.064920",
        "lng": "-77.0288100",
        "type": "BODEGA",
        "distrito": "LA VICTORIA",
        "provincia": "LIMA",
        "celda": "LIMA"
    },
    {
        "ciudad": "LIMA",
        "horario": "",
        "name": "ORTEGA SALAZAR NIDA VICTORIA",
        "address": "JR LARCO HERRERA 999",
        "lat": "-12.091817",
        "lng": "-77.0666990",
        "type": "BODEGA",
        "distrito": "MAGDALENA DEL MAR",
        "provincia": "LIMA",
        "celda": "LIMA"
    },
    {
        "ciudad": "LIMA",
        "horario": "",
        "name": "CHAMPA HUAMAN JUAN CARLOS",
        "address": "RODRIGUEZ DE MENDOZA 399",
        "lat": "-12.073010",
        "lng": "-77.0616430",
        "type": "BODEGA",
        "distrito": "PUEBLO LIBRE",
        "provincia": "LIMA",
        "celda": "LIMA"
    },
    {
        "ciudad": "LIMA",
        "horario": "",
        "name": "CAYATOPA ACOSTA ROSA AGACELY",
        "address": "CERRO BLANCO MZ A LT 12",
        "lat": "-12.085323",
        "lng": "-77.0033890",
        "type": "BODEGA",
        "distrito": "SAN BORJA",
        "provincia": "LIMA",
        "celda": "LIMA"
    },
    {
        "ciudad": "LIMA",
        "horario": "",
        "name": "INVERSIONES DETODO HNZ SAC",
        "address": "MZ C LT12 AV SAN LUIS 3029 B",
        "lat": "-12.108311",
        "lng": "-76.9924550",
        "type": "BODEGA",
        "distrito": "SAN BORJA",
        "provincia": "LIMA",
        "celda": "LIMA"
    },
    {
        "ciudad": "LIMA",
        "horario": "",
        "name": "PARDO DELGADO VDA DE MONRROY MAXIMI",
        "address": "AV. CANADA 1706",
        "lat": "-12.084239",
        "lng": "-77.0045490",
        "type": "BODEGA",
        "distrito": "SAN BORJA",
        "provincia": "LIMA",
        "celda": "LIMA"
    },
    {
        "ciudad": "LIMA",
        "horario": "",
        "name": "BARAHONA PADIN WILFREDO JUNIOR",
        "address": "MZB LT5 24 DE FEBRERO LIMATAMBO",
        "lat": "-12.083425",
        "lng": "-77.0038160",
        "type": "BODEGA",
        "distrito": "SAN LUIS",
        "provincia": "LIMA",
        "celda": "LIMA"
    },
    {
        "ciudad": "LIMA",
        "horario": "",
        "name": "DEL VALLE HUALLPA VIANE ELENA",
        "address": "AV. SAN LUIS URB. TREBOL 779",
        "lat": "-12.073554",
        "lng": "-77.0017000",
        "type": "BODEGA",
        "distrito": "SAN LUIS",
        "provincia": "LIMA",
        "celda": "LIMA"
    },
    {
        "ciudad": "LIMA",
        "horario": "",
        "name": "LOPEZ PAREJA ROSEMARY",
        "address": "JR. RIO AMAZONAS NRO. 279 URB. LASMORAS",
        "lat": "-12.076901",
        "lng": "-77.0004000",
        "type": "BODEGA",
        "distrito": "SAN LUIS",
        "provincia": "LIMA",
        "celda": "LIMA"
    },
    {
        "ciudad": "LIMA",
        "horario": "",
        "name": "PAUJA CANALES BERTHA",
        "address": "JR 24 DE FEBRERO 296",
        "lat": "-12.083101",
        "lng": "-77.0010620",
        "type": "BODEGA",
        "distrito": "SAN LUIS",
        "provincia": "LIMA",
        "celda": "LIMA"
    },
    {
        "ciudad": "LIMA",
        "horario": "",
        "name": "PASTOR CASAFRANCA JAVIER",
        "address": "AV GUARDIA CIVIL SUR 41 LT B SANTIAGO DE SURCO",
        "lat": "-12.167758",
        "lng": "-76.9908460",
        "type": "BODEGA",
        "distrito": "SANTIAGO DE SURCO",
        "provincia": "LIMA",
        "celda": "LIMA"
    },
    {
        "ciudad": "LIMA",
        "horario": "",
        "name": "NUNEZ NUNEZ EYNER",
        "address": "AV SAN DIEGO NRO 251 SURQUILLO",
        "lat": "-12.118825",
        "lng": "-77.0240760",
        "type": "BODEGA",
        "distrito": "SURQUILLO",
        "provincia": "LIMA",
        "celda": "LIMA"
    },
    {
        "ciudad": "LIMA",
        "horario": "",
        "name": "PASTOR RUA RAQUEL",
        "address": "CA. LUIS MONTERO SAN BORJA 194",
        "lat": "-12.108819",
        "lng": "-77.001271",
        "type": "BODEGA",
        "distrito": "",
        "provincia": "LIMA",
        "celda": "LIMA"
    },
    {
        "ciudad": "LIMA",
        "horario": "",
        "name": "SANCHEZ SILVA JOSE ALEX",
        "address": "CAL. PABLO USANDIZAGA NRO. INT. URB. L 5111",
        "lat": "-12.108059",
        "lng": "-76.9932",
        "type": "BODEGA",
        "distrito": "",
        "provincia": "LIMA",
        "celda": "LIMA"
    },
    {
        "ciudad": "LIMA",
        "horario": "",
        "name": "LAHUANA GUTIERREZ PAULINA",
        "address": "JR LIMATAMBO NORTE 208",
        "lat": "-12.0828",
        "lng": "-77.0024",
        "type": "BODEGA",
        "distrito": "",
        "provincia": "LIMA",
        "celda": "LIMA"
    },
    {
        "ciudad": "LIMA",
        "horario": "",
        "name": "VITON HERRERA ALICIA",
        "address": "174 175 AV LIMATAMBO",
        "lat": "-12.083376",
        "lng": "-77.003016",
        "type": "BODEGA",
        "distrito": "",
        "provincia": "LIMA",
        "celda": "LIMA"
    },
    {
        "ciudad": "LIMA",
        "horario": "",
        "name": "VITON HERRERA WILIAN NELSON",
        "address": "MZ C LT25 CERRO CECHIN SAN JUAN MASIAS",
        "lat": "-12.08442",
        "lng": "-77.002783",
        "type": "BODEGA",
        "distrito": "",
        "provincia": "LIMA",
        "celda": "LIMA"
    },
    {
        "ciudad": "LIMA",
        "horario": "",
        "name": "HUARACA SOLIS ANA",
        "address": "JR ROSA NOGUERA 620",
        "lat": "-12.079867999999999",
        "lng": "-77.0040670000000063",
        "type": "BODEGA",
        "distrito": "",
        "provincia": "LIMA",
        "celda": "LIMA"
    },
    {
        "ciudad": "LIMA",
        "horario": "",
        "name": "PARO QUISPE YANET",
        "address": "SAN LUIS",
        "lat": "-12.0776",
        "lng": "-77.0023000000000053",
        "type": "BODEGA",
        "distrito": "",
        "provincia": "LIMA",
        "celda": "LIMA"
    },
    {
        "ciudad": "LIMA",
        "horario": "",
        "name": "ROMERO INGA OCTAVIO EDGAR",
        "address": "CL AUGUSTO DURAND 2798",
        "lat": "-12.072119000000001",
        "lng": "-76.9944",
        "type": "BODEGA",
        "distrito": "",
        "provincia": "LIMA",
        "celda": "LIMA"
    },
    {
        "ciudad": "LIMA",
        "horario": "",
        "name": "AQUISE PARRA YUNI MIRIAM",
        "address": "JR LIBERTAD 1391",
        "lat": "-12.086379",
        "lng": "-77.067328",
        "type": "BODEGA",
        "distrito": "",
        "provincia": "LIMA",
        "celda": "LIMA"
    },
    {
        "ciudad": "LIMA",
        "horario": "",
        "name": "ARIAS ENRIQUEZ CAMILO",
        "address": "CARLOS BONDY 500",
        "lat": "-12.084336",
        "lng": "-77.066773",
        "type": "BODEGA",
        "distrito": "",
        "provincia": "LIMA",
        "celda": "LIMA"
    },
    {
        "ciudad": "LIMA",
        "horario": "",
        "name": "BUSTAMANTE RAMIREZ PATRICIA JANETT",
        "address": "JR DANIEL ALCIDES CARRION 390",
        "lat": "-12.093109",
        "lng": "-77.066751",
        "type": "BODEGA",
        "distrito": "",
        "provincia": "LIMA",
        "celda": "LIMA"
    },
    {
        "ciudad": "LIMA",
        "horario": "",
        "name": "ZHU SHUFEN",
        "address": "JR CORONEL INCLAN N 890",
        "lat": "-12.111533",
        "lng": "-77.031439",
        "type": "BODEGA",
        "distrito": "",
        "provincia": "LIMA",
        "celda": "LIMA"
    },
    {
        "ciudad": "LIMA",
        "horario": "",
        "name": "BODEGA YENNI SRL",
        "address": "AV PETIT THOUARS 2299",
        "lat": "-12.086708",
        "lng": "-77.03296",
        "type": "BODEGA",
        "distrito": "",
        "provincia": "LIMA",
        "celda": "LIMA"
    },
    {
        "ciudad": "LIMA",
        "horario": "",
        "name": "SOLANO DELGADO NEISER",
        "address": "AV PETIT THOUARS 3135",
        "lat": "-12.093917",
        "lng": "-77.031845",
        "type": "BODEGA",
        "distrito": "",
        "provincia": "LIMA",
        "celda": "LIMA"
    },
    {
        "ciudad": "LIMA",
        "horario": "",
        "name": "CAMONES QUEZADA GINNET",
        "address": "AV JAVIER MARIATEGUI 1177",
        "lat": "-12.077068",
        "lng": "-77.04721",
        "type": "BODEGA",
        "distrito": "",
        "provincia": "LIMA",
        "celda": "LIMA"
    },
    {
        "ciudad": "LIMA",
        "horario": "",
        "name": "COMERCIAL FADER SAC",
        "address": "JR HUASCAR 1359",
        "lat": "-12.075773",
        "lng": "-77.046825",
        "type": "BODEGA",
        "distrito": "",
        "provincia": "LIMA",
        "celda": "LIMA"
    },
    {
        "ciudad": "LIMA",
        "horario": "",
        "name": "CREACIONES CRISTINA EIRL",
        "address": "JR JERONIMO DE ALIGA 119",
        "lat": "-12.083904",
        "lng": "-77.060067",
        "type": "BODEGA",
        "distrito": "",
        "provincia": "LIMA",
        "celda": "LIMA"
    },
    {
        "ciudad": "LIMA",
        "horario": "",
        "name": "BRUNO GARCIA EDISON",
        "address": "AV PARDO DE ZELA 708",
        "lat": "-12.082911",
        "lng": "-77.029114",
        "type": "BODEGA",
        "distrito": "",
        "provincia": "LIMA",
        "celda": "LIMA"
    },
    {
        "ciudad": "LIMA",
        "horario": "",
        "name": "GUTIERREZ ARANA ABRAHAM",
        "address": "JR MANUEL SEGURA 122",
        "lat": "-12.079721",
        "lng": "-77.036211",
        "type": "BODEGA",
        "distrito": "",
        "provincia": "LIMA",
        "celda": "LIMA"
    },
    {
        "ciudad": "LIMA",
        "horario": "",
        "name": "PAQUIYAURI ACEVEDO AURELIO",
        "address": "JR TORRES PAZ 1007",
        "lat": "-12.074062",
        "lng": "-77.031384",
        "type": "BODEGA",
        "distrito": "",
        "provincia": "LIMA",
        "celda": "LIMA"
    },
    {
        "ciudad": "LIMA",
        "horario": "",
        "name": "SANCHEZ POMA TANIA",
        "address": "AV PETIT THUARS 998 SANTA BEATRIZ",
        "lat": "-12.074227",
        "lng": "-77.034896",
        "type": "BODEGA",
        "distrito": "",
        "provincia": "LIMA",
        "celda": "LIMA"
    },
    {
        "ciudad": "LIMA",
        "horario": "",
        "name": "GONZALES CRUCES",
        "address": "#REF!",
        "lat": "-12.161816",
        "lng": "-76.99067599999999",
        "type": "BODEGA",
        "distrito": "",
        "provincia": "LIMA",
        "celda": "LIMA"
    },
    {
        "ciudad": "LIMA",
        "horario": "",
        "name": "HUAYANAY UGARTE MAGDA VERONICA",
        "address": "#REF!",
        "lat": "-12.159589",
        "lng": "-76.98771600000001",
        "type": "BODEGA",
        "distrito": "",
        "provincia": "LIMA",
        "celda": "LIMA"
    },
    {
        "ciudad": "LIMA",
        "horario": "",
        "name": "MENDIETA NUÑEZ FELIX",
        "address": "#REF!",
        "lat": "-12.161786",
        "lng": "-76.982209",
        "type": "BODEGA",
        "distrito": "",
        "provincia": "LIMA",
        "celda": "LIMA"
    },
    {
        "ciudad": "LIMA",
        "horario": "",
        "name": "VILLANUEVA RONDINEL NESTOR",
        "address": "#REF!",
        "lat": "-12.141973",
        "lng": "-76.98509300000001",
        "type": "BODEGA",
        "distrito": "",
        "provincia": "LIMA",
        "celda": "LIMA"
    },
    {
        "ciudad": "LIMA",
        "horario": "",
        "name": "DIAZ GOICOCHEA LUZ NELI",
        "address": "#REF!",
        "lat": "-12.136325",
        "lng": "-76.996217",
        "type": "BODEGA",
        "distrito": "",
        "provincia": "LIMA",
        "celda": "LIMA"
    },
    {
        "ciudad": "LIMA",
        "horario": "",
        "name": "CASTILLO LABAN GISELA",
        "address": "#REF!",
        "lat": "-12.115025",
        "lng": "-77.030789999999996",
        "type": "BODEGA",
        "distrito": "",
        "provincia": "LIMA",
        "celda": "LIMA"
    },
    {
        "ciudad": "LIMA",
        "horario": "",
        "name": "CUBAS MARLO INDALESIO",
        "address": "#REF!",
        "lat": "-12.11574",
        "lng": "-77.035641999999996",
        "type": "BODEGA",
        "distrito": "",
        "provincia": "LIMA",
        "celda": "LIMA"
    },
    {
        "ciudad": "LIMA",
        "horario": "",
        "name": "RIVERA SERNA OFELIA",
        "address": "#REF!",
        "lat": "-12.114528",
        "lng": "-77.026920000000004",
        "type": "BODEGA",
        "distrito": "",
        "provincia": "LIMA",
        "celda": "LIMA"
    },
    {
        "ciudad": "LIMA",
        "horario": "",
        "name": "SANCHEZ SILVA IDELSO",
        "address": "#REF!",
        "lat": "-12.115689",
        "lng": "-77.030747000000005",
        "type": "BODEGA",
        "distrito": "",
        "provincia": "LIMA",
        "celda": "LIMA"
    },
    {
        "ciudad": "LIMA",
        "horario": "",
        "name": "VEGA HUAMANI EDGAR ALEXANDER",
        "address": "#REF!",
        "lat": "-12.121322",
        "lng": "-77.038614999999993",
        "type": "BODEGA",
        "distrito": "",
        "provincia": "LIMA",
        "celda": "LIMA"
    },
    {
        "ciudad": "LIMA",
        "horario": "",
        "name": "HUAMANI GARRIAZO DEIMA CELINA",
        "address": "#REF!",
        "lat": "-12.118643",
        "lng": "-77.021371000000002",
        "type": "BODEGA",
        "distrito": "",
        "provincia": "LIMA",
        "celda": "LIMA"
    },
    {
        "ciudad": "LIMA",
        "horario": "",
        "name": "NORIS VERONICA VARGAS MAMANI",
        "address": "#REF!",
        "lat": "-12.113917",
        "lng": "-77.023290000000003",
        "type": "BODEGA",
        "distrito": "",
        "provincia": "LIMA",
        "celda": "LIMA"
    },
    {
        "ciudad": "LIMA",
        "horario": "",
        "name": "VERASTEGUI SOLANO ENER ALBERTO",
        "address": "#REF!",
        "lat": "-12.112429",
        "lng": "-77.0073200000000071",
        "type": "BODEGA",
        "distrito": "",
        "provincia": "LIMA",
        "celda": "LIMA"
    },
    {
        "ciudad": "LIMA",
        "horario": "",
        "name": "AÑAZCO INFANTE JOSÉ LIBORIO",
        "address": "AAHH JUAN PABLO II MZ F LOTE 4",
        "lat": "-11.8307000",
        "lng": "-77.0685",
        "type": "BODEGA",
        "distrito": "CARABAYLLO",
        "provincia": "LIMA",
        "celda": "LIMA"
    },
    {
        "ciudad": "LIMA",
        "horario": "",
        "name": "CACERES ANCHE ALYSSA GUADALUPE",
        "address": "ASOCIACION VALLE SAGRADO LOMAS DE C",
        "lat": "-11.8291000",
        "lng": "-77.064",
        "type": "BODEGA",
        "distrito": "CARABAYLLO",
        "provincia": "LIMA",
        "celda": "LIMA"
    },
    {
        "ciudad": "LIMA",
        "horario": "",
        "name": "DAVILA GARAY BERNINE JAVIER",
        "address": "AAHH TIERRA PROMETIDA A 1",
        "lat": "-11.8327000",
        "lng": "-77.0865",
        "type": "BODEGA",
        "distrito": "CARABAYLLO",
        "provincia": "LIMA",
        "celda": "LIMA"
    },
    {
        "ciudad": "LIMA",
        "horario": "",
        "name": "FERNANDEZ BACA YASMIN JANNET",
        "address": "MZ C LT 31",
        "lat": "-11.8274000",
        "lng": "-77.045",
        "type": "BODEGA",
        "distrito": "CARABAYLLO",
        "provincia": "LIMA",
        "celda": "LIMA"
    },
    {
        "ciudad": "LIMA",
        "horario": "",
        "name": "FLORES VERGARAY MAGDALENA FLORA",
        "address": "COND TAMBO VERDE PTA 2",
        "lat": "-11.8571000",
        "lng": "-77.0433",
        "type": "BODEGA",
        "distrito": "CARABAYLLO",
        "provincia": "LIMA",
        "celda": "LIMA"
    },
    {
        "ciudad": "LIMA",
        "horario": "",
        "name": "FLORES VILLEGAS HARDI YULIANA",
        "address": "RESIDENCIAL VENECIA DE CARABAYLLO",
        "lat": "-11.8308000",
        "lng": "-77.076",
        "type": "BODEGA",
        "distrito": "CARABAYLLO",
        "provincia": "LIMA",
        "celda": "LIMA"
    },
    {
        "ciudad": "LIMA",
        "horario": "",
        "name": "MENDOZA PAULINO LOLA CELMIRA",
        "address": "PROLONGACION VIVIENDA SAN JOSE MZ X",
        "lat": "-11.8294000",
        "lng": "-77.0814",
        "type": "BODEGA",
        "distrito": "CARABAYLLO",
        "provincia": "LIMA",
        "celda": "LIMA"
    },
    {
        "ciudad": "LIMA",
        "horario": "",
        "name": "OJEDA CHIPA SONIA",
        "address": "CL SAN MARTIN MZ G1 LT 60A",
        "lat": "-11.8298000",
        "lng": "-77.0603",
        "type": "BODEGA",
        "distrito": "CARABAYLLO",
        "provincia": "LIMA",
        "celda": "LIMA"
    },
    {
        "ciudad": "LIMA",
        "horario": "",
        "name": "PEREZ DAVILA HERIBERTO",
        "address": "AV OLIVARES MZ C LT 5",
        "lat": "-11.8303000",
        "lng": "-77.0469",
        "type": "BODEGA",
        "distrito": "CARABAYLLO",
        "provincia": "LIMA",
        "celda": "LIMA"
    },
    {
        "ciudad": "LIMA",
        "horario": "",
        "name": "QUISPE GUERRA OFELIA MARIA",
        "address": "CA LOS CLAVELES MZ E LT 17",
        "lat": "-11.8575000",
        "lng": "-77.0401",
        "type": "BODEGA",
        "distrito": "CARABAYLLO",
        "provincia": "LIMA",
        "celda": "LIMA"
    },
    {
        "ciudad": "LIMA",
        "horario": "",
        "name": "RAMIREZ ALCANTARA ARCANGEL RAFAEL",
        "address": "JR JAVIER HERAUD 188",
        "lat": "-11.8956160",
        "lng": "-77.034225",
        "type": "BODEGA",
        "distrito": "CARABAYLLO",
        "provincia": "LIMA",
        "celda": "LIMA"
    },
    {
        "ciudad": "LIMA",
        "horario": "",
        "name": "RODRIGUEZ VERDE AMMER",
        "address": "ASOCIACION VILLA RICA MZ B LT 3",
        "lat": "-11.8274000",
        "lng": "-77.0556",
        "type": "BODEGA",
        "distrito": "CARABAYLLO",
        "provincia": "LIMA",
        "celda": "LIMA"
    },
    {
        "ciudad": "LIMA",
        "horario": "",
        "name": "ROJAS DELGADO ESTHER GLADYS",
        "address": "AV CHACRA GRANDE PARCELA 18 MZ E L",
        "lat": "-11.8566000",
        "lng": "-77.0448",
        "type": "BODEGA",
        "distrito": "CARABAYLLO",
        "provincia": "LIMA",
        "celda": "LIMA"
    },
    {
        "ciudad": "LIMA",
        "horario": "",
        "name": "SALAZAR MONTENEGRO ICELA",
        "address": "CL ABRAHAN VALDELOMAR MZ C LT 15",
        "lat": "-11.8906630",
        "lng": "-77.033341",
        "type": "BODEGA",
        "distrito": "CARABAYLLO",
        "provincia": "LIMA",
        "celda": "LIMA"
    },
    {
        "ciudad": "LIMA",
        "horario": "",
        "name": "ARONE CRUCES SOL MILAGROS",
        "address": "JR DE LA TORRE UGARTE 499",
        "lat": "-11.9369780",
        "lng": "-77.060418",
        "type": "BODEGA",
        "distrito": "COMAS",
        "provincia": "LIMA",
        "celda": "LIMA"
    },
    {
        "ciudad": "LIMA",
        "horario": "",
        "name": "BLAS MERCADO WAGNER WEVER",
        "address": "AV ROSA DE AMERICA NMR 792",
        "lat": "-11.9619570",
        "lng": "-77.06313",
        "type": "BODEGA",
        "distrito": "COMAS",
        "provincia": "LIMA",
        "celda": "LIMA"
    },
    {
        "ciudad": "LIMA",
        "horario": "",
        "name": "FERNANDEZ CHUQUIMANTARI ZELMIRA ANG",
        "address": "JIRON PIMENTEL 525",
        "lat": "-11.9043800",
        "lng": "-77.040762",
        "type": "BODEGA",
        "distrito": "COMAS",
        "provincia": "LIMA",
        "celda": "LIMA"
    },
    {
        "ciudad": "LIMA",
        "horario": "",
        "name": "GUTIERREZ JAVE AIDA LURDES",
        "address": "AV METROPOLITANA 1035",
        "lat": "-11.9582780",
        "lng": "-77.063586",
        "type": "BODEGA",
        "distrito": "COMAS",
        "provincia": "LIMA",
        "celda": "LIMA"
    },
    {
        "ciudad": "LIMA",
        "horario": "",
        "name": "HUACCHARAQUI CUIPA DELICIA",
        "address": "AV MANUEL GONZALES MZ J 14",
        "lat": "-11.9403650",
        "lng": "-77.058589",
        "type": "BODEGA",
        "distrito": "COMAS",
        "provincia": "LIMA",
        "celda": "LIMA"
    },
    {
        "ciudad": "LIMA",
        "horario": "",
        "name": "HUAPAYA QUISPE ELSON DANIEL",
        "address": "CALLE PRIMAVERA 132 URB LA ALBORADA",
        "lat": "-11.9104990",
        "lng": "-77.043123",
        "type": "BODEGA",
        "distrito": "COMAS",
        "provincia": "LIMA",
        "celda": "LIMA"
    },
    {
        "ciudad": "LIMA",
        "horario": "",
        "name": "LUNA GALARZA DE MAYHUA FRANCISCA BE",
        "address": "PJ 2 DE MAYO 273",
        "lat": "-11.9039750",
        "lng": "-77.038455",
        "type": "BODEGA",
        "distrito": "COMAS",
        "provincia": "LIMA",
        "celda": "LIMA"
    },
    {
        "ciudad": "LIMA",
        "horario": "",
        "name": "MARIN MENDOZA MARIA VICTORIA",
        "address": "JR MANUEL SALCEDO NRO 221",
        "lat": "-11.9324700",
        "lng": "-77.056233",
        "type": "BODEGA",
        "distrito": "COMAS",
        "provincia": "LIMA",
        "celda": "LIMA"
    },
    {
        "ciudad": "LIMA",
        "horario": "",
        "name": "OLMEDO PARRILLA NILDA",
        "address": "CALLE LAS FLORES NRO 181",
        "lat": "-11.9116360",
        "lng": "-77.045134",
        "type": "BODEGA",
        "distrito": "COMAS",
        "provincia": "LIMA",
        "celda": "LIMA"
    },
    {
        "ciudad": "LIMA",
        "horario": "",
        "name": "PORTAL WONG CARLOS ENRIQUE",
        "address": "CA BRUNO TERRERO 250",
        "lat": "-11.9325720",
        "lng": "-77.054124",
        "type": "BODEGA",
        "distrito": "COMAS",
        "provincia": "LIMA",
        "celda": "LIMA"
    },
    {
        "ciudad": "LIMA",
        "horario": "",
        "name": "RIOS VALLEJOS MICAELA",
        "address": "COOP PRIMAVERA MZ I1 LT 9",
        "lat": "-11.9225950",
        "lng": "-77.051739",
        "type": "BODEGA",
        "distrito": "COMAS",
        "provincia": "LIMA",
        "celda": "LIMA"
    },
    {
        "ciudad": "LIMA",
        "horario": "",
        "name": "SANTIAGO PEREZ MELQUIADES EULALIO",
        "address": "ASOC LA ALBORADA 142",
        "lat": "-11.9121030",
        "lng": "-77.047435",
        "type": "BODEGA",
        "distrito": "COMAS",
        "provincia": "LIMA",
        "celda": "LIMA"
    },
    {
        "ciudad": "LIMA",
        "horario": "",
        "name": "SIHUE DE CONDEZO ROSA ELVIRA",
        "address": "CA LOS ZAFIROS 150",
        "lat": "-11.9617280",
        "lng": "-77.060643",
        "type": "BODEGA",
        "distrito": "COMAS",
        "provincia": "LIMA",
        "celda": "LIMA"
    },
    {
        "ciudad": "LIMA",
        "horario": "",
        "name": "TRUJILLO QUEZADA JESUS MARIA",
        "address": "CA FRANCISCO D P QUIROZ 229",
        "lat": "-11.9393690",
        "lng": "-77.062103",
        "type": "BODEGA",
        "distrito": "COMAS",
        "provincia": "LIMA",
        "celda": "LIMA"
    },
    {
        "ciudad": "LIMA",
        "horario": "",
        "name": "TRUJILLO RADA MARCELA",
        "address": "AV RETABLO 695",
        "lat": "-11.9333050",
        "lng": "-77.058707",
        "type": "BODEGA",
        "distrito": "COMAS",
        "provincia": "LIMA",
        "celda": "LIMA"
    },
    {
        "ciudad": "LIMA",
        "horario": "",
        "name": "VELA GAVIRIA WILMA",
        "address": "AV SAN CARLOS 524",
        "lat": "-11.9067610",
        "lng": "-77.041875",
        "type": "BODEGA",
        "distrito": "COMAS",
        "provincia": "LIMA",
        "celda": "LIMA"
    },
    {
        "ciudad": "LIMA",
        "horario": "",
        "name": "CESPEDES PURIHUAMAN MAGDALENA",
        "address": "MZ S LT 24 SANTA ELIZA",
        "lat": "-11.9675300",
        "lng": "-77.08033",
        "type": "BODEGA",
        "distrito": "LOS OLIVOS",
        "provincia": "LIMA",
        "celda": "LIMA"
    },
    {
        "ciudad": "LIMA",
        "horario": "",
        "name": "INFANTE YUCRA JUSTINA",
        "address": "AH LAURA CALLER MZ 21 LT 2",
        "lat": "-11.9698550",
        "lng": "-77.076185",
        "type": "BODEGA",
        "distrito": "LOS OLIVOS",
        "provincia": "LIMA",
        "celda": "LIMA"
    },
    {
        "ciudad": "LIMA",
        "horario": "",
        "name": "PACHECO PIZARRO GEMA LUZ",
        "address": "MZ D LT 24",
        "lat": "-11.9755870",
        "lng": "-77.075808",
        "type": "BODEGA",
        "distrito": "LOS OLIVOS",
        "provincia": "LIMA",
        "celda": "LIMA"
    },
    {
        "ciudad": "LIMA",
        "horario": "",
        "name": "VASQUEZ HUAMAN FANNY ROSA",
        "address": "AV UNIVERSITARIA MZ P LT 1",
        "lat": "-11.9639000",
        "lng": "-77.072316",
        "type": "BODEGA",
        "distrito": "LOS OLIVOS",
        "provincia": "LIMA",
        "celda": "LIMA"
    },
    {
        "ciudad": "LIMA",
        "horario": "",
        "name": "ALVA ASCENCIO LORENZO",
        "address": "ASOC SOL DE SANTA MZ A L 9 PD COPACA",
        "lat": "-11.8592080",
        "lng": "-77.079268",
        "type": "BODEGA",
        "distrito": "PUENTE PIEDRA",
        "provincia": "LIMA",
        "celda": "LIMA"
    },
    {
        "ciudad": "LIMA",
        "horario": "",
        "name": "ESPINOZA BARDALES FLOR LILIANA",
        "address": "AV L GUTIERREZ MZ B LT 7",
        "lat": "-11.8613560",
        "lng": "-77.077096",
        "type": "BODEGA",
        "distrito": "PUENTE PIEDRA",
        "provincia": "LIMA",
        "celda": "LIMA"
    },
    {
        "ciudad": "LIMA",
        "horario": "",
        "name": "GUTIERREZ PAJUELO ERLINDA GUILLERMA",
        "address": "AV JUAN LECAROS MZ C LT 15",
        "lat": "-11.8639680",
        "lng": "-77.0737",
        "type": "BODEGA",
        "distrito": "PUENTE PIEDRA",
        "provincia": "LIMA",
        "celda": "LIMA"
    },
    {
        "ciudad": "LIMA",
        "horario": "",
        "name": "CARRERO CARRANZA JUAN HOMERO",
        "address": "PACHACUTEC MZ Q1 8",
        "lat": "-11.8327000",
        "lng": "-77.1482",
        "type": "BODEGA",
        "distrito": "VENTANILLA",
        "provincia": "LIMA",
        "celda": "LIMA"
    },
    {
        "ciudad": "LIMA",
        "horario": "",
        "name": "MARCOS MALLQUI ANIBAL",
        "address": "COOP VIV MONTECARLO MZ C 1",
        "lat": "-11.8981000",
        "lng": "-77.1269",
        "type": "BODEGA",
        "distrito": "VENTANILLA",
        "provincia": "LIMA",
        "celda": "LIMA"
    },
    {
        "ciudad": "LIMA",
        "horario": "",
        "name": "MEJIA MATOS BRICET YESENIA",
        "address": "AV 225 MZ A1 LT 2",
        "lat": "-11.8283000",
        "lng": "-77.1609",
        "type": "BODEGA",
        "distrito": "VENTANILLA",
        "provincia": "LIMA",
        "celda": "LIMA"
    },
    {
        "ciudad": "LIMA",
        "horario": "",
        "name": "POMA ZAVALA ISABEL NINFA",
        "address": "AAHH PARCELA C PECP MZ X LT 2",
        "lat": "-11.8483000",
        "lng": "-77.1233",
        "type": "BODEGA",
        "distrito": "VENTANILLA",
        "provincia": "LIMA",
        "celda": "LIMA"
    },
    {
        "ciudad": "LIMA",
        "horario": "",
        "name": "CHIPANA CCACCYA CRECENCIA MODESTA",
        "address": "18 DE DICIEMBRE MZ A LT 48 URB NAVIDAD DE VILLA CHORRILLO",
        "lat": "-12.190373",
        "lng": "-77.005258",
        "type": "BODEGA",
        "distrito": "CHORRILLOS",
        "provincia": "LIMA",
        "celda": "LIMA"
    },
    {
        "ciudad": "LIMA",
        "horario": "",
        "name": "PATRICIA CASTAÑEDA CARBAJAL",
        "address": "CA ALFONSO DA SILVA 120",
        "lat": "-12.178765",
        "lng": "-77.013129",
        "type": "BODEGA",
        "distrito": "CHORRILLOS",
        "provincia": "LIMA",
        "celda": "LIMA"
    },
    {
        "ciudad": "LIMA",
        "horario": "",
        "name": "TORRES CABELLO MIRIAN",
        "address": "AV EL TRIUNFO MZ F1 LT 4",
        "lat": "-12.1952",
        "lng": "-76.980722",
        "type": "BODEGA",
        "distrito": "CHORRILLOS",
        "provincia": "LIMA",
        "celda": "LIMA"
    },
    {
        "ciudad": "LIMA",
        "horario": "",
        "name": "VILLAVICENCIO CHOQUEHUAYTA SOLEDAD",
        "address": "AV NEW YORK 353",
        "lat": "-12.172915",
        "lng": "-77.022677",
        "type": "BODEGA",
        "distrito": "CHORRILLOS",
        "provincia": "LIMA",
        "celda": "LIMA"
    },
    {
        "ciudad": "LIMA",
        "horario": "",
        "name": "ABARCA MENDOZA PERCY DICK",
        "address": "JR CASTILLA 216 LURIN",
        "lat": "-12.2748",
        "lng": "-76.8709",
        "type": "BODEGA",
        "distrito": "LURIN",
        "provincia": "LIMA",
        "celda": "LIMA"
    },
    {
        "ciudad": "LIMA",
        "horario": "",
        "name": "CAMBILLO VICENTE MARIELA",
        "address": "JRTARAPACA MZO LT2",
        "lat": "-12.2752",
        "lng": "-76.868",
        "type": "BODEGA",
        "distrito": "LURIN",
        "provincia": "LIMA",
        "celda": "LIMA"
    },
    {
        "ciudad": "LIMA",
        "horario": "",
        "name": "CRISANTE TUCTA OSCAR",
        "address": "MZ A LT 11 GUADULFO SILVA",
        "lat": "-12.2715",
        "lng": "-76.8719",
        "type": "BODEGA",
        "distrito": "LURIN",
        "provincia": "LIMA",
        "celda": "LIMA"
    },
    {
        "ciudad": "LIMA",
        "horario": "",
        "name": "CUYA LAURA MIDA AYNE",
        "address": "MZA G LOTE 6 AH GUADULFO SILVA",
        "lat": "-12.2695",
        "lng": "-76.8745",
        "type": "BODEGA",
        "distrito": "LURIN",
        "provincia": "LIMA",
        "celda": "LIMA"
    },
    {
        "ciudad": "LIMA",
        "horario": "",
        "name": "INVERSIONES Y REPRESENTACIONES KILL",
        "address": "JR MORE 336",
        "lat": "-12.2742",
        "lng": "-76.8679",
        "type": "BODEGA",
        "distrito": "LURIN",
        "provincia": "LIMA",
        "celda": "LIMA"
    },
    {
        "ciudad": "LIMA",
        "horario": "",
        "name": "VASQUEZ PAREDES WILMER",
        "address": "JR URUGUAY MZ 14 LT 21B KM 40 LURIN",
        "lat": "-12.2976",
        "lng": "-76.8516",
        "type": "BODEGA",
        "distrito": "LURIN",
        "provincia": "LIMA",
        "celda": "LIMA"
    },
    {
        "ciudad": "LIMA",
        "horario": "",
        "name": "FLORES AROTINCO TOMAZA",
        "address": "AAHH 15 DE AGOSTO MZ A LT 14",
        "lat": "-12.187428",
        "lng": "-76.97884",
        "type": "BODEGA",
        "distrito": "SAN JUAN DE MIRAFLORES",
        "provincia": "LIMA",
        "celda": "LIMA"
    },
    {
        "ciudad": "LIMA",
        "horario": "",
        "name": "ABANTO SANTAMARIA MARIA SOLEDAD",
        "address": "MANZANA B 14 LOTE 14",
        "lat": "-12.216199",
        "lng": "-76.938577",
        "type": "BODEGA",
        "distrito": "VILLA EL SALVADOR",
        "provincia": "LIMA",
        "celda": "LIMA"
    },
    {
        "ciudad": "LIMA",
        "horario": "",
        "name": "ALMINTA AQUINO CELIA",
        "address": "M L L 23 SECT 2 GPO 20",
        "lat": "-12.214027",
        "lng": "-76.942228",
        "type": "BODEGA",
        "distrito": "VILLA EL SALVADOR",
        "provincia": "LIMA",
        "celda": "LIMA"
    },
    {
        "ciudad": "LIMA",
        "horario": "",
        "name": "ASTO VILCA MONICA ELIZABETH",
        "address": "MZ B LT 01 SCT 2 GRP 12",
        "lat": "-12.20402",
        "lng": "-76.942926",
        "type": "BODEGA",
        "distrito": "VILLA EL SALVADOR",
        "provincia": "LIMA",
        "celda": "LIMA"
    },
    {
        "ciudad": "LIMA",
        "horario": "",
        "name": "BARRAZA VALDEZ ROSA YSABEL",
        "address": "SEC 2 GRUPO 9 MZ M LT 3",
        "lat": "-12.207855",
        "lng": "-76.939123",
        "type": "BODEGA",
        "distrito": "VILLA EL SALVADOR",
        "provincia": "LIMA",
        "celda": "LIMA"
    },
    {
        "ciudad": "LIMA",
        "horario": "",
        "name": "BARRIENTOS LANDA SARAGOZA PELAGIA",
        "address": "MZ M LT 16 SECTOR1 GRUPO 25A",
        "lat": "-12.20408",
        "lng": "-76.953539",
        "type": "BODEGA",
        "distrito": "VILLA EL SALVADOR",
        "provincia": "LIMA",
        "celda": "LIMA"
    },
    {
        "ciudad": "LIMA",
        "horario": "",
        "name": "CACSIRE PUMA CLAUDIA",
        "address": "SECTOR 2 GRUPO 16 MZ I LT 1 MZ I LT",
        "lat": "-12.20616",
        "lng": "-76.947541",
        "type": "BODEGA",
        "distrito": "VILLA EL SALVADOR",
        "provincia": "LIMA",
        "celda": "LIMA"
    },
    {
        "ciudad": "LIMA",
        "horario": "",
        "name": "CARRION LOPEZ BENEDICTA",
        "address": "MZ F LT 5 GRUPO 17 SECTOR 1",
        "lat": "-12.194537",
        "lng": "-76.95235",
        "type": "BODEGA",
        "distrito": "VILLA EL SALVADOR",
        "provincia": "LIMA",
        "celda": "LIMA"
    },
    {
        "ciudad": "LIMA",
        "horario": "",
        "name": "CASAS CHAVEZ CASIMIRA GUADALUPE",
        "address": "SECT 6 GPO 1A MZ B LT 23",
        "lat": "-12.206976",
        "lng": "-76.953054",
        "type": "BODEGA",
        "distrito": "VILLA EL SALVADOR",
        "provincia": "LIMA",
        "celda": "LIMA"
    },
    {
        "ciudad": "LIMA",
        "horario": "",
        "name": "CASTILLO MUÑOZ NEYDA NOEMI",
        "address": "MZ A LT 17 SC 3 G 27",
        "lat": "-12.221519",
        "lng": "-76.938458",
        "type": "BODEGA",
        "distrito": "VILLA EL SALVADOR",
        "provincia": "LIMA",
        "celda": "LIMA"
    },
    {
        "ciudad": "LIMA",
        "horario": "",
        "name": "CUADROS CONDO MARTA",
        "address": "M H L 10 SEC 01 GRP 14",
        "lat": "-12.198545",
        "lng": "-76.947441",
        "type": "BODEGA",
        "distrito": "VILLA EL SALVADOR",
        "provincia": "LIMA",
        "celda": "LIMA"
    },
    {
        "ciudad": "LIMA",
        "horario": "",
        "name": "DE LA CRUZ CUYUBAMBA ERICSSON DALMI",
        "address": "MZ O1 LT 4 SECT2 GPO18",
        "lat": "-12.207946",
        "lng": "-76.945013",
        "type": "BODEGA",
        "distrito": "VILLA EL SALVADOR",
        "provincia": "LIMA",
        "celda": "LIMA"
    },
    {
        "ciudad": "LIMA",
        "horario": "",
        "name": "DIAZ BERROCAL DE CONTRERAS LEONORA",
        "address": "SECTOR 2 GRUPO 19 MZ C LOTE 3",
        "lat": "-12.210684",
        "lng": "-76.942423",
        "type": "BODEGA",
        "distrito": "VILLA EL SALVADOR",
        "provincia": "LIMA",
        "celda": "LIMA"
    },
    {
        "ciudad": "LIMA",
        "horario": "",
        "name": "DUEÑAS CHAMA GREGORIO ESTEBAN",
        "address": "SECTOR 1 GRUPO 25A MZ H LT 9",
        "lat": "-12.204411",
        "lng": "-76.952148",
        "type": "BODEGA",
        "distrito": "VILLA EL SALVADOR",
        "provincia": "LIMA",
        "celda": "LIMA"
    },
    {
        "ciudad": "LIMA",
        "horario": "",
        "name": "GENNELL NOLORBE CARLOS HUMBERTO",
        "address": "BARRIO SEXTOR 02 GRUPO 25 MZ P LT 0",
        "lat": "-12.21423",
        "lng": "-76.944",
        "type": "BODEGA",
        "distrito": "VILLA EL SALVADOR",
        "provincia": "LIMA",
        "celda": "LIMA"
    },
    {
        "ciudad": "LIMA",
        "horario": "",
        "name": "GOMEZ FABIAN PEDRO URBANO",
        "address": "SEC 2 GRUPO 25A MZ M LT 13",
        "lat": "-12.216627",
        "lng": "-76.945659",
        "type": "BODEGA",
        "distrito": "VILLA EL SALVADOR",
        "provincia": "LIMA",
        "celda": "LIMA"
    },
    {
        "ciudad": "LIMA",
        "horario": "",
        "name": "INVERSIONES YACELIN S.A.C.",
        "address": "MZ K LT 05 SECTOR II GRUPO 11 AV ALAMOS CON EL SOL",
        "lat": "-12.203242",
        "lng": "-76.945128",
        "type": "BODEGA",
        "distrito": "VILLA EL SALVADOR",
        "provincia": "LIMA",
        "celda": "LIMA"
    },
    {
        "ciudad": "LIMA",
        "horario": "",
        "name": "JAVIER VILCAYAURE CLORINDA",
        "address": "SEC 2 GPO 11 M M L 15",
        "lat": "-12.203402",
        "lng": "-76.945773",
        "type": "BODEGA",
        "distrito": "VILLA EL SALVADOR",
        "provincia": "LIMA",
        "celda": "LIMA"
    },
    {
        "ciudad": "LIMA",
        "horario": "",
        "name": "JUAREZ QUISPE GERONIMA",
        "address": "SECTOR 2 GRUPO 17 MZ D LT 1",
        "lat": "-12.206469",
        "lng": "-76.945174",
        "type": "BODEGA",
        "distrito": "VILLA EL SALVADOR",
        "provincia": "LIMA",
        "celda": "LIMA"
    },
    {
        "ciudad": "LIMA",
        "horario": "",
        "name": "MACHADO VEGA ERIKA SOLEDAD",
        "address": "SECTOR 2 GRUPO 10 MZ D LT 4",
        "lat": "-12.210415",
        "lng": "-76.937413",
        "type": "BODEGA",
        "distrito": "VILLA EL SALVADOR",
        "provincia": "LIMA",
        "celda": "LIMA"
    },
    {
        "ciudad": "LIMA",
        "horario": "",
        "name": "MARIN ALMINTA MARLENE",
        "address": "MZ E LT 123 SECT 2 GPO 19",
        "lat": "-12.211623",
        "lng": "-76.941136",
        "type": "BODEGA",
        "distrito": "VILLA EL SALVADOR",
        "provincia": "LIMA",
        "celda": "LIMA"
    },
    {
        "ciudad": "LIMA",
        "horario": "",
        "name": "MORENO RETAMOZO TERESA JANET",
        "address": "MZ I LOTE 13A SECTOR 2 GRUPO 24A",
        "lat": "-12.215448",
        "lng": "-76.946508",
        "type": "BODEGA",
        "distrito": "VILLA EL SALVADOR",
        "provincia": "LIMA",
        "celda": "LIMA"
    },
    {
        "ciudad": "LIMA",
        "horario": "",
        "name": "MURILLO PONTE JUSTINA MARTHA",
        "address": "MZ M LT 41 SECT03 GPO29 AAHHCHAVIN DE HUANTAR",
        "lat": "-12.22502",
        "lng": "-76.938187",
        "type": "BODEGA",
        "distrito": "VILLA EL SALVADOR",
        "provincia": "LIMA",
        "celda": "LIMA"
    },
    {
        "ciudad": "LIMA",
        "horario": "",
        "name": "PEREZ VASQUEZ ERCILA",
        "address": "MZ B LT 01 SECT 02 GPO 06",
        "lat": "-12.202519",
        "lng": "-76.941531",
        "type": "BODEGA",
        "distrito": "VILLA EL SALVADOR",
        "provincia": "LIMA",
        "celda": "LIMA"
    },
    {
        "ciudad": "LIMA",
        "horario": "",
        "name": "REYES MUÑOZ LUZMILA",
        "address": "MZ P LT 20 SECT 6 GPO 2 VES",
        "lat": "-12.2102",
        "lng": "-76.951083",
        "type": "BODEGA",
        "distrito": "VILLA EL SALVADOR",
        "provincia": "LIMA",
        "celda": "LIMA"
    },
    {
        "ciudad": "LIMA",
        "horario": "",
        "name": "RODRIGUEZ GONZALES GUMA NORICA",
        "address": "SV V SALVADOR 01 23A I 17",
        "lat": "-12.199997",
        "lng": "-76.955113",
        "type": "BODEGA",
        "distrito": "VILLA EL SALVADOR",
        "provincia": "LIMA",
        "celda": "LIMA"
    },
    {
        "ciudad": "LIMA",
        "horario": "",
        "name": "SANCHEZ PAUCA SANDY KRISSTELL",
        "address": "SV SEC1 GRUPO 25 MZ O LT 13",
        "lat": "-12.20236",
        "lng": "-76.951593",
        "type": "BODEGA",
        "distrito": "VILLA EL SALVADOR",
        "provincia": "LIMA",
        "celda": "LIMA"
    },
    {
        "ciudad": "LIMA",
        "horario": "",
        "name": "SANDOVAL ALCALA ELMER JOHNSON",
        "address": "MZ O LT 13A SECT 2 GPO 24A",
        "lat": "-12.213572",
        "lng": "-76.94671",
        "type": "BODEGA",
        "distrito": "VILLA EL SALVADOR",
        "provincia": "LIMA",
        "celda": "LIMA"
    },
    {
        "ciudad": "LIMA",
        "horario": "",
        "name": "SILVESTRE NOA DE SANDOVAL EDANIA",
        "address": "SEC 2 GPO 11 MZ F LT 14 VES",
        "lat": "-12.203009",
        "lng": "-76.942915",
        "type": "BODEGA",
        "distrito": "VILLA EL SALVADOR",
        "provincia": "LIMA",
        "celda": "LIMA"
    },
    {
        "ciudad": "LIMA",
        "horario": "",
        "name": "CAPISTRANO AVILA JOSEFINA MIRTHA",
        "address": "MZ F LT 02 CL CONCEPCION LOS INCASATE",
        "lat": "-12.030917",
        "lng": "-76.940951",
        "type": "BODEGA",
        "distrito": "ATE",
        "provincia": "LIMA",
        "celda": "LIMA"
    },
    {
        "ciudad": "LIMA",
        "horario": "",
        "name": "FERNANDEZ VILA DE ROMERO LUCILA BEA",
        "address": "MZ J LT 06 ASOC VIRGEN DEL CARMENATE",
        "lat": "-12.034975",
        "lng": "-76.927891",
        "type": "BODEGA",
        "distrito": "ATE",
        "provincia": "LIMA",
        "celda": "LIMA"
    },
    {
        "ciudad": "LIMA",
        "horario": "",
        "name": "LUQUE MAMANI DELIA GIRALDINA",
        "address": "CALLE GUADALAJARA 229 MAYORAZGO BAJO ATE",
        "lat": "-12.058185",
        "lng": "-76.9399",
        "type": "BODEGA",
        "distrito": "ATE",
        "provincia": "LIMA",
        "celda": "LIMA"
    },
    {
        "ciudad": "LIMA",
        "horario": "",
        "name": "PAREDES BORDONAVE MARITZA ROXANA",
        "address": "MZ R1 LT 10 AV LOS VIRREYES URB CERES",
        "lat": "-12.028975",
        "lng": "-76.934447",
        "type": "BODEGA",
        "distrito": "ATE",
        "provincia": "LIMA",
        "celda": "LIMA"
    },
    {
        "ciudad": "LIMA",
        "horario": "",
        "name": "QUINCHO REYES YESENIA IRENE",
        "address": "ATEBELLO HORIZONTE",
        "lat": "-12.033668",
        "lng": "-76.925749",
        "type": "BODEGA",
        "distrito": "ATE",
        "provincia": "LIMA",
        "celda": "LIMA"
    },
    {
        "ciudad": "LIMA",
        "horario": "",
        "name": "SANCHEZ BEJARANO HEBER BASILIO",
        "address": "CA HEFESTOS 400 URB OLIMPO SALAMANCA",
        "lat": "-12.073481",
        "lng": "-76.976361",
        "type": "BODEGA",
        "distrito": "ATE",
        "provincia": "LIMA",
        "celda": "LIMA"
    },
    {
        "ciudad": "LIMA",
        "horario": "",
        "name": "JULIAN MAYTA MARTHA JUANA",
        "address": "AV TUPAC AMARU 181 EL AGUSTINO",
        "lat": "-12.0527",
        "lng": "-77.0042",
        "type": "BODEGA",
        "distrito": "EL AGUSTINO",
        "provincia": "LIMA",
        "celda": "LIMA"
    },
    {
        "ciudad": "LIMA",
        "horario": "",
        "name": "PACUSH PLEGACION GUZMAN BENIGNO",
        "address": "CALLE LOS GORRIONES 230 COOP.HUANCAYO",
        "lat": "-12.0363",
        "lng": "-76.9983",
        "type": "BODEGA",
        "distrito": "EL AGUSTINO",
        "provincia": "LIMA",
        "celda": "LIMA"
    },
    {
        "ciudad": "LIMA",
        "horario": "",
        "name": "YAURI CRISTOBAL JUANA",
        "address": "CA LAS ESMERALDAS 853 A COOP HUANCAYO",
        "lat": "-12.0313",
        "lng": "-77.0003",
        "type": "BODEGA",
        "distrito": "EL AGUSTINO",
        "provincia": "LIMA",
        "celda": "LIMA"
    },
    {
        "ciudad": "LIMA",
        "horario": "",
        "name": "AYLAS UNTIVEROS RAUL",
        "address": "CA AMERICO VESPUCIO MZL LT61 LA MOLINA LA MOLINA",
        "lat": "-12.061572",
        "lng": "-76.948378",
        "type": "BODEGA",
        "distrito": "LA MOLINA",
        "provincia": "LIMA",
        "celda": "LIMA"
    },
    {
        "ciudad": "LIMA",
        "horario": "",
        "name": "HUAMANCAJA TORRES PASCUAL ETSON",
        "address": "CALLE EL TRAPICHE 122",
        "lat": "-12.103479",
        "lng": "-76.940904",
        "type": "BODEGA",
        "distrito": "LA MOLINA",
        "provincia": "LIMA",
        "celda": "LIMA"
    },
    {
        "ciudad": "LIMA",
        "horario": "",
        "name": "MENDOZA ALEJANDRO ERICK JOHAN",
        "address": "CA AREQUIPA 146 URB SANTA PATRICIA",
        "lat": "-12.069005",
        "lng": "-76.946889",
        "type": "BODEGA",
        "distrito": "LA MOLINA",
        "provincia": "LIMA",
        "celda": "LIMA"
    },
    {
        "ciudad": "LIMA",
        "horario": "",
        "name": "MENESES HUARANCA BELISA",
        "address": "AV. CONSTRUCTORES 528 LA MOLINA",
        "lat": "-12.065133",
        "lng": "-76.95328",
        "type": "BODEGA",
        "distrito": "LA MOLINA",
        "provincia": "LIMA",
        "celda": "LIMA"
    },
    {
        "ciudad": "LIMA",
        "horario": "",
        "name": "SALSAVILCA SALSAVILCA ISABEL",
        "address": "AV CASTILLA LA NUEVA SN MZA LT26 URB LOS GIRASOLESLA M",
        "lat": "-12.105904",
        "lng": "-76.940995",
        "type": "BODEGA",
        "distrito": "LA MOLINA",
        "provincia": "LIMA",
        "celda": "LIMA"
    },
    {
        "ciudad": "LIMA",
        "horario": "",
        "name": "SANTANA MAYON EDITH LIDIA",
        "address": "CA CENTRAL MZ G LT 2 URB LOS GIRASO",
        "lat": "-12.108192",
        "lng": "-76.941602",
        "type": "BODEGA",
        "distrito": "LA MOLINA",
        "provincia": "LIMA",
        "celda": "LIMA"
    },
    {
        "ciudad": "LIMA",
        "horario": "",
        "name": "ZUNIGA ANDRADE ADAM HUGO",
        "address": "AV HUAROCHIRI 687 URB COVIMA LA MOLINA",
        "lat": "-12.058307",
        "lng": "-76.94388",
        "type": "BODEGA",
        "distrito": "LA MOLINA",
        "provincia": "LIMA",
        "celda": "LIMA"
    },
    {
        "ciudad": "LIMA",
        "horario": "",
        "name": "ANCA LAUPA DE PRADA BERTHA",
        "address": "AV VICTOR MALASQUEZ PARCELA 4 SEC 24 MZ A LT 1 PACHA",
        "lat": "-12.1245",
        "lng": "-76.8725",
        "type": "BODEGA",
        "distrito": "PACHACAMAC",
        "provincia": "LIMA",
        "celda": "LIMA"
    },
    {
        "ciudad": "LIMA",
        "horario": "",
        "name": "AYME ALARCON RITA",
        "address": "PORTADA 1RA ETAPA MZB LT11 PACHACAMAC PACHACAMAC",
        "lat": "-12.0893",
        "lng": "-76.883",
        "type": "BODEGA",
        "distrito": "PACHACAMAC",
        "provincia": "LIMA",
        "celda": "LIMA"
    },
    {
        "ciudad": "LIMA",
        "horario": "",
        "name": "CHOLLA SOTO LUZ ANGELICA",
        "address": "MZ M LT 1 UPIS VISTA ALEGRE PACHACAMAC",
        "lat": "-12.0977",
        "lng": "-76.8794",
        "type": "BODEGA",
        "distrito": "PACHACAMAC",
        "provincia": "LIMA",
        "celda": "LIMA"
    },
    {
        "ciudad": "LIMA",
        "horario": "",
        "name": "SANCHEZ QUISPE NOEMI MILAGROS",
        "address": "MZ B6 LT 3A HUERTOS DE MANCHAY PACHACAMAC",
        "lat": "-12.1202",
        "lng": "-76.8731",
        "type": "BODEGA",
        "distrito": "PACHACAMAC",
        "provincia": "LIMA",
        "celda": "LIMA"
    },
    {
        "ciudad": "LIMA",
        "horario": "",
        "name": "COMERCIAL CELA E.I.R.L.",
        "address": "JOSE GABRIEL CHARRIARSE 496",
        "lat": "-12.155174",
        "lng": "-76.972451",
        "type": "BODEGA",
        "distrito": "SAN JUAN DE MIRAFLORES",
        "provincia": "LIMA",
        "celda": "LIMA"
    },
    {
        "ciudad": "LIMA",
        "horario": "",
        "name": "LOZADA & GOMEZ INVERSIONES S.A.C.",
        "address": "RUFINO ECHENIQUE 113 PAMPLONA BAJA",
        "lat": "-12.151411",
        "lng": "-76.976767",
        "type": "BODEGA",
        "distrito": "SAN JUAN DE MIRAFLORES",
        "provincia": "LIMA",
        "celda": "LIMA"
    },
    {
        "ciudad": "LIMA",
        "horario": "",
        "name": "MARTINEZ PRADO MARIO YSAAC",
        "address": "JR RAMON GUERRERO 885 URB CACERES",
        "lat": "-12.155799",
        "lng": "-76.96411",
        "type": "BODEGA",
        "distrito": "SAN JUAN DE MIRAFLORES",
        "provincia": "LIMA",
        "celda": "LIMA"
    },
    {
        "ciudad": "LIMA",
        "horario": "",
        "name": "RIOS GUTIERREZ DE CHOCCARE KARINA I",
        "address": "BUENA VENTURA REY 524 SJM",
        "lat": "-12.153892",
        "lng": "-76.970498",
        "type": "BODEGA",
        "distrito": "SAN JUAN DE MIRAFLORES",
        "provincia": "LIMA",
        "celda": "LIMA"
    },
    {
        "ciudad": "LIMA",
        "horario": "",
        "name": "ROJAS PAUCA RUT EUGENIA",
        "address": "VELASCO ALVARADO 175 ZONA K",
        "lat": "-12.154554",
        "lng": "-76.96657",
        "type": "BODEGA",
        "distrito": "SAN JUAN DE MIRAFLORES",
        "provincia": "LIMA",
        "celda": "LIMA"
    },
    {
        "ciudad": "LIMA",
        "horario": "",
        "name": "SALAZAR SEGOVIA RUTH MILAGROS",
        "address": "JR ARTURO ARMERO 116A URB ARENALJM",
        "lat": "-12.15613",
        "lng": "-76.965392",
        "type": "BODEGA",
        "distrito": "SAN JUAN DE MIRAFLORES",
        "provincia": "LIMA",
        "celda": "LIMA"
    },
    {
        "ciudad": "LIMA",
        "horario": "",
        "name": "SALDAÑA GALLARDO ERICK ADALID",
        "address": "JR CESAR CANEVAGRO 999",
        "lat": "-12.156741",
        "lng": "-76.966162",
        "type": "BODEGA",
        "distrito": "SAN JUAN DE MIRAFLORES",
        "provincia": "LIMA",
        "celda": "LIMA"
    },
    {
        "ciudad": "LIMA",
        "horario": "",
        "name": "TAPIA POMA ROBERTO LADISLAO",
        "address": "JR JUAN CASTILLA 1093",
        "lat": "-12.158972",
        "lng": "-76.961684",
        "type": "BODEGA",
        "distrito": "SAN JUAN DE MIRAFLORES",
        "provincia": "LIMA",
        "celda": "LIMA"
    },
    {
        "ciudad": "LIMA",
        "horario": "",
        "name": "BOZA CARBAJAL AMANDA",
        "address": "AV LOS VIRREYES MZ D LT 2",
        "lat": "-12.031908",
        "lng": "-76.946109",
        "type": "BODEGA",
        "distrito": "SANTA ANITA",
        "provincia": "LIMA",
        "celda": "LIMA"
    },
    {
        "ciudad": "LIMA",
        "horario": "",
        "name": "CORPORACION ENDISFRUTAR S.A.C.",
        "address": "MZ B LT 15 URBANIZACION SANTA AURELIA",
        "lat": "-12.037809",
        "lng": "-76.952318",
        "type": "BODEGA",
        "distrito": "SANTA ANITA",
        "provincia": "LIMA",
        "celda": "LIMA"
    },
    {
        "ciudad": "LIMA",
        "horario": "",
        "name": "MINIMARKET CELIA E.I.R.L.",
        "address": "CA TAMBO REAL MZ Q2 LT 20A URB MONTERRICO",
        "lat": "-12.110583",
        "lng": "-76.971042",
        "type": "BODEGA",
        "distrito": "SANTIAGO DE SURCO",
        "provincia": "LIMA",
        "celda": "LIMA"
    },
    {
        "ciudad": "LIMA",
        "horario": "",
        "name": "QUISPE SERNA RUTH PILAR",
        "address": "CA SANTA ELENA NORTE 104 URB POLO HUNT SANTIAGO DE SU",
        "lat": "-12.106779",
        "lng": "-76.968038",
        "type": "BODEGA",
        "distrito": "SANTIAGO DE SURCO",
        "provincia": "LIMA",
        "celda": "LIMA"
    },
    {
        "ciudad": "LIMA",
        "horario": "",
        "name": "ASENCIOS GUALBERTA ALEJANDRO",
        "address": "AV VILLA MARIA 155",
        "lat": "-12.166208",
        "lng": "-76.951609",
        "type": "BODEGA",
        "distrito": "VILLA MARIA DEL TRIUNFO",
        "provincia": "LIMA",
        "celda": "LIMA"
    },
    {
        "ciudad": "LIMA",
        "horario": "",
        "name": "ASHANGA BOSMEDIANO EMERITA MAGDALEN",
        "address": "JR SANTA ANA 243",
        "lat": "-12.088770999999999",
        "lng": "-77.076252999999994",
        "type": "BODEGA",
        "distrito": "",
        "provincia": "LIMA",
        "celda": "LIMA"
    },
    {
        "ciudad": "LIMA",
        "horario": "",
        "name": "QUISPE ESPINOZA CINTIA LISBET",
        "address": "AV. TACNA 912",
        "lat": "-12.088291999999999",
        "lng": "-77.083149000000006",
        "type": "BODEGA",
        "distrito": "",
        "provincia": "LIMA",
        "celda": "LIMA"
    },
    {
        "ciudad": "LIMA",
        "horario": "",
        "name": "RETIS BARTOLOME ERICK MATEO",
        "address": "JR. JOSE GALVEZ 777",
        "lat": "-12.08967",
        "lng": "-77.075131999999996",
        "type": "BODEGA",
        "distrito": "",
        "provincia": "LIMA",
        "celda": "LIMA"
    },
    {
        "ciudad": "LIMA",
        "horario": "",
        "name": "ZARATE TERAN ZONIA",
        "address": "JR TARAPACA 520",
        "lat": "-12.087662",
        "lng": "-77.066543999999993",
        "type": "BODEGA",
        "distrito": "",
        "provincia": "LIMA",
        "celda": "LIMA"
    },
    {
        "ciudad": "LIMA",
        "horario": "",
        "name": "ROMERO ESPINOZA RITA DOMITILA",
        "address": "AV ARNALDO MARQUEZ 901",
        "lat": "-12.070066000000001",
        "lng": "-77.045846999999995",
        "type": "BODEGA",
        "distrito": "",
        "provincia": "LIMA",
        "celda": "LIMA"
    },
    {
        "ciudad": "LIMA",
        "horario": "",
        "name": "VARGAS FERMIN MARGARITA ESTELA",
        "address": "CONOCOCHA 1799",
        "lat": "-12.082839999999999",
        "lng": "-77.037699000000003",
        "type": "BODEGA",
        "distrito": "",
        "provincia": "LIMA",
        "celda": "LIMA"
    },
    {
        "ciudad": "LIMA",
        "horario": "",
        "name": "INVERSIONES MDV EIRL",
        "address": "JR FINAL MZ I LT1 GR 2 CRUZ DE MOTUPE",
        "lat": "-11.943606",
        "lng": "-76.976553",
        "type": "MINIMARKET",
        "distrito": "SAN JUAN DE LURIGANCHO",
        "provincia": "LIMA",
        "celda": "LIMA"
    },
    {
        "ciudad": "LIMA",
        "horario": "",
        "name": "SEMINO MORENO DENISSE MERCEDES",
        "address": "MZ B LT 3 AV PROCERES DE LA INDEPENDENCIA 3575 URB LOS PINOS",
        "lat": "-11.970557",
        "lng": "-76.995586",
        "type": "MINIMARKET",
        "distrito": "SAN JUAN DE LURIGANCHO",
        "provincia": "LIMA",
        "celda": "LIMA"
    },
    {
        "ciudad": "LIMA",
        "horario": "",
        "name": "COMERCIAL PERSEBAS EIRL",
        "address": "AVENIDA CUBA 486",
        "lat": "-12.074997",
        "lng": "-77.0404720",
        "type": "MINIMARKET",
        "distrito": "JESUS MARIA",
        "provincia": "LIMA",
        "celda": "LIMA"
    },
    {
        "ciudad": "LIMA",
        "horario": "",
        "name": "MINIMARKET OASIS SAC",
        "address": "JR HUAMACHUCO 1500",
        "lat": "-12.076844",
        "lng": "-77.0496710",
        "type": "MINIMARKET",
        "distrito": "JESUS MARIA",
        "provincia": "LIMA",
        "celda": "LIMA"
    },
    {
        "ciudad": "LIMA",
        "horario": "",
        "name": "SANTIVANEZ SANCHEZ EDWIN",
        "address": "CL. GARCIA NARANJO 343",
        "lat": "-12.061728",
        "lng": "-77.0290080",
        "type": "MINIMARKET",
        "distrito": "LA VICTORIA",
        "provincia": "LIMA",
        "celda": "LIMA"
    },
    {
        "ciudad": "LIMA",
        "horario": "",
        "name": "VILCA ORE NINZA",
        "address": "AV PALERMO 199",
        "lat": "-12.075513",
        "lng": "-77.0229080",
        "type": "MINIMARKET",
        "distrito": "LA VICTORIA",
        "provincia": "LIMA",
        "celda": "LIMA"
    },
    {
        "ciudad": "LIMA",
        "horario": "",
        "name": "VILLANUEVA UGALDE DE ORTEGA EULALIA",
        "address": "CALLE AMERICA 744",
        "lat": "-12.068945",
        "lng": "-77.0153000",
        "type": "MINIMARKET",
        "distrito": "LA VICTORIA",
        "provincia": "LIMA",
        "celda": "LIMA"
    },
    {
        "ciudad": "LIMA",
        "horario": "",
        "name": "WELT MODE S.A.C.",
        "address": "AV PARINACOCHAS 2248",
        "lat": "-12.080873",
        "lng": "-77.0192950",
        "type": "MINIMARKET",
        "distrito": "LA VICTORIA",
        "provincia": "LIMA",
        "celda": "LIMA"
    },
    {
        "ciudad": "LIMA",
        "horario": "",
        "name": "MAYO CULQUICONDOR RENE",
        "address": "CALLE AMAZONAS 517",
        "lat": "-12.085078",
        "lng": "-77.0683530",
        "type": "MINIMARKET",
        "distrito": "MAGDALENA DEL MAR",
        "provincia": "LIMA",
        "celda": "LIMA"
    },
    {
        "ciudad": "LIMA",
        "horario": "",
        "name": "RIOS VASQUEZ VILMA JESUS",
        "address": "JOSE GALVEZ 203",
        "lat": "-12.091798",
        "lng": "-77.0694250",
        "type": "MINIMARKET",
        "distrito": "MAGDALENA DEL MAR",
        "provincia": "LIMA",
        "celda": "LIMA"
    },
    {
        "ciudad": "LIMA",
        "horario": "",
        "name": "CLAVO BARRENO ALDO ROGER",
        "address": "AV LA MAR 432",
        "lat": "-12.115789",
        "lng": "-77.0428320",
        "type": "MINIMARKET",
        "distrito": "MIRAFLORES",
        "provincia": "LIMA",
        "celda": "LIMA"
    },
    {
        "ciudad": "LIMA",
        "horario": "",
        "name": "CUENCA LEON EFRAIN PASCUAL",
        "address": "AV. SAN LUIS SAN BORJA 2191",
        "lat": "-12.092724",
        "lng": "-76.9956000",
        "type": "MINIMARKET",
        "distrito": "SAN BORJA",
        "provincia": "LIMA",
        "celda": "LIMA"
    },
    {
        "ciudad": "LIMA",
        "horario": "",
        "name": "FOURNIER & SAAVEDRA S.A.C.",
        "address": "AV AVIACIÓN 3431",
        "lat": "-12.106350",
        "lng": "-77.0007210",
        "type": "MINIMARKET",
        "distrito": "SAN BORJA",
        "provincia": "LIMA",
        "celda": "LIMA"
    },
    {
        "ciudad": "LIMA",
        "horario": "",
        "name": "VILLENA DELGADO ANDRES AVELINO",
        "address": "CA. FRAY ANGELICO 307 URB. SAN BORJA",
        "lat": "-12.095454",
        "lng": "-76.9950000",
        "type": "MINIMARKET",
        "distrito": "SAN BORJA",
        "provincia": "LIMA",
        "celda": "LIMA"
    },
    {
        "ciudad": "LIMA",
        "horario": "",
        "name": "ALARCON CUCHILLA LIZ",
        "address": "AV ANDRES ARAMBURU 189 B",
        "lat": "-12.103241",
        "lng": "-77.0307400",
        "type": "MINIMARKET",
        "distrito": "SAN ISIDRO",
        "provincia": "LIMA",
        "celda": "LIMA"
    },
    {
        "ciudad": "LIMA",
        "horario": "",
        "name": "PILLACA FLORES JUAN CARLOS",
        "address": "JR. ROMA N. 146 MZA. C LOTE. 8 URB.EL BOSQUE",
        "lat": "-12.107134",
        "lng": "-76.991863",
        "type": "MINIMARKET",
        "distrito": "",
        "provincia": "LIMA",
        "celda": "LIMA"
    },
    {
        "ciudad": "LIMA",
        "horario": "",
        "name": "CAPILLO BLAS YOLANDA",
        "address": "AV SAN LUIS 1209",
        "lat": "-12.078884",
        "lng": "-76.998551",
        "type": "MINIMARKET",
        "distrito": "",
        "provincia": "LIMA",
        "celda": "LIMA"
    },
    {
        "ciudad": "LIMA",
        "horario": "",
        "name": "COMERCIALIZADORA UNIDAS S R L",
        "address": "AV. ROSA TORO 800",
        "lat": "-12.078459",
        "lng": "-76.9945",
        "type": "MINIMARKET",
        "distrito": "",
        "provincia": "LIMA",
        "celda": "LIMA"
    },
    {
        "ciudad": "LIMA",
        "horario": "",
        "name": "NEYRA HURTADO VIKE MARIA",
        "address": "AV EL AIRE 1208 TIENDA 101",
        "lat": "-12.0783",
        "lng": "-76.998555",
        "type": "MINIMARKET",
        "distrito": "",
        "provincia": "LIMA",
        "celda": "LIMA"
    },
    {
        "ciudad": "LIMA",
        "horario": "",
        "name": "MARKETS MARIBEL",
        "address": "AV UNIVERSITARIA 529",
        "lat": "-12.084937",
        "lng": "-77.082781",
        "type": "MINIMARKET",
        "distrito": "",
        "provincia": "LIMA",
        "celda": "LIMA"
    },
    {
        "ciudad": "LIMA",
        "horario": "",
        "name": "GARCIA OLIVA ANA DEL PILAR",
        "address": "CA ARAGON 194",
        "lat": "-12.069834999999999",
        "lng": "-77.071504000000004",
        "type": "MINIMARKET",
        "distrito": "",
        "provincia": "LIMA",
        "celda": "LIMA"
    },
    {
        "ciudad": "LIMA",
        "horario": "",
        "name": "JOSELYN ARACELY",
        "address": "JIRÓN LIBERTAD 1179",
        "lat": "-12.088074",
        "lng": "-77.067972",
        "type": "MINIMARKET",
        "distrito": "",
        "provincia": "LIMA",
        "celda": "LIMA"
    },
    {
        "ciudad": "LIMA",
        "horario": "",
        "name": "CLAVO PALOMARES MARIA FERNANDA",
        "address": "JR IGNACIO MERINO 458",
        "lat": "-12.113557",
        "lng": "-77.045863",
        "type": "MINIMARKET",
        "distrito": "",
        "provincia": "LIMA",
        "celda": "LIMA"
    },
    {
        "ciudad": "LIMA",
        "horario": "",
        "name": "FESTIGOL E.I.R.L.",
        "address": "GENERAL MENDIBURU 1178",
        "lat": "-12.110393",
        "lng": "-77.049596",
        "type": "MINIMARKET",
        "distrito": "",
        "provincia": "LIMA",
        "celda": "LIMA"
    },
    {
        "ciudad": "LIMA",
        "horario": "",
        "name": "CRESPO ARANA BRAULIO FREDY",
        "address": "AVPETIT THOUARS 3871",
        "lat": "-12.100125",
        "lng": "-77.030965",
        "type": "MINIMARKET",
        "distrito": "",
        "provincia": "LIMA",
        "celda": "LIMA"
    },
    {
        "ciudad": "LIMA",
        "horario": "",
        "name": "COMERCIAL E & P E.I.R.L.",
        "address": "JR MATEO PUMACAHUA 1398",
        "lat": "-12.076328",
        "lng": "-77.043616",
        "type": "MINIMARKET",
        "distrito": "",
        "provincia": "LIMA",
        "celda": "LIMA"
    },
    {
        "ciudad": "LIMA",
        "horario": "",
        "name": "INVERSIONES CACERES ARMAS S.A.C",
        "address": "AV SAN FELIPE NRO 149",
        "lat": "-12.080952",
        "lng": "-77.057697",
        "type": "MINIMARKET",
        "distrito": "",
        "provincia": "LIMA",
        "celda": "LIMA"
    },
    {
        "ciudad": "LIMA",
        "horario": "",
        "name": "MARKET JUANITO S.A.C.",
        "address": "AVENIDA HORACIO URTEAGA 1519",
        "lat": "-12.076501",
        "lng": "-77.050481000000005",
        "type": "MINIMARKET",
        "distrito": "",
        "provincia": "LIMA",
        "celda": "LIMA"
    },
    {
        "ciudad": "LIMA",
        "horario": "",
        "name": "DIAZ VIGIL CELIDA",
        "address": "JR JOSE BERNARDO ALCEDO 172",
        "lat": "-12.084699",
        "lng": "-77.034769",
        "type": "MINIMARKET",
        "distrito": "",
        "provincia": "LIMA",
        "celda": "LIMA"
    },
    {
        "ciudad": "LIMA",
        "horario": "",
        "name": "INVERSIONES KHAO E.I.R.L.",
        "address": "AV PASEO DE LA REPUBLICA 1798",
        "lat": "-12.081114",
        "lng": "-77.02751",
        "type": "MINIMARKET",
        "distrito": "",
        "provincia": "LIMA",
        "celda": "LIMA"
    },
    {
        "ciudad": "LIMA",
        "horario": "",
        "name": "LLAMO CORONADO JOSE WALTER",
        "address": "AV PETIT THOUARS 1785",
        "lat": "-12.082073",
        "lng": "-77.033578",
        "type": "MINIMARKET",
        "distrito": "",
        "provincia": "LIMA",
        "celda": "LIMA"
    },
    {
        "ciudad": "LIMA",
        "horario": "",
        "name": "ABANTO POLO LUIS DAVID",
        "address": "#REF!",
        "lat": "-12.121009",
        "lng": "-77.033190000000005",
        "type": "MINIMARKET",
        "distrito": "",
        "provincia": "LIMA",
        "celda": "LIMA"
    },
    {
        "ciudad": "LIMA",
        "horario": "",
        "name": "MINIMARKET ROMA SRLTDA",
        "address": "#REF!",
        "lat": "-12.121536",
        "lng": "-77.037986000000004",
        "type": "MINIMARKET",
        "distrito": "",
        "provincia": "LIMA",
        "celda": "LIMA"
    },
    {
        "ciudad": "LIMA",
        "horario": "",
        "name": "NEGOCIACIONES JIREH & MAJAZ EIRL",
        "address": "#REF!",
        "lat": "-12.121024",
        "lng": "-77.033726999999999",
        "type": "MINIMARKET",
        "distrito": "",
        "provincia": "LIMA",
        "celda": "LIMA"
    },
    {
        "ciudad": "LIMA",
        "horario": "",
        "name": "OSCCO AVALOS CRISTIAN ERASMO",
        "address": "#REF!",
        "lat": "-12.122135",
        "lng": "-77.033108999999996",
        "type": "MINIMARKET",
        "distrito": "",
        "provincia": "LIMA",
        "celda": "LIMA"
    },
    {
        "ciudad": "LIMA",
        "horario": "",
        "name": "AGUIRRE PERALES MOISES",
        "address": "#REF!",
        "lat": "-12.133486",
        "lng": "-77.013806000000002",
        "type": "MINIMARKET",
        "distrito": "",
        "provincia": "LIMA",
        "celda": "LIMA"
    },
    {
        "ciudad": "LIMA",
        "horario": "",
        "name": "PIZARRO COLLACHAGUA SAYULY SUSAN",
        "address": "AV.UNIVERSITARIA 329 URB TUNGASUCA",
        "lat": "-11.8963250",
        "lng": "-77.037884",
        "type": "MINIMARKET",
        "distrito": "CARABAYLLO",
        "provincia": "LIMA",
        "celda": "LIMA"
    },
    {
        "ciudad": "LIMA",
        "horario": "",
        "name": "BARBOZA PIZARRO CONSUELO INOCENTE",
        "address": "AV RETABLO MZ N LT 42",
        "lat": "-11.9244840",
        "lng": "-77.054647",
        "type": "MINIMARKET",
        "distrito": "COMAS",
        "provincia": "LIMA",
        "celda": "LIMA"
    },
    {
        "ciudad": "LIMA",
        "horario": "",
        "name": "BERNARDO BRUNO JOCELYN NOELIA",
        "address": "JR MANUEL GONZALES PRADA 11200",
        "lat": "-11.9291020",
        "lng": "-77.057297",
        "type": "MINIMARKET",
        "distrito": "COMAS",
        "provincia": "LIMA",
        "celda": "LIMA"
    },
    {
        "ciudad": "LIMA",
        "horario": "",
        "name": "LOZANO VASQUEZ SAMUEL",
        "address": "AV LOS INCAS 424 URB SAN JUAN BAUTISTA",
        "lat": "-11.9145530",
        "lng": "-77.048555",
        "type": "MINIMARKET",
        "distrito": "COMAS",
        "provincia": "LIMA",
        "celda": "LIMA"
    },
    {
        "ciudad": "LIMA",
        "horario": "",
        "name": "MENDOZA TARAZONA JORGE LUIS",
        "address": "PROLONG HIPOLITO UNANUE 303",
        "lat": "-11.9377900",
        "lng": "-77.056497",
        "type": "MINIMARKET",
        "distrito": "COMAS",
        "provincia": "LIMA",
        "celda": "LIMA"
    },
    {
        "ciudad": "LIMA",
        "horario": "",
        "name": "ROSALES GANTO NORMAN SAUL",
        "address": "AV RETABLO 773 TERCERA ETAPA URB ELRETABLO",
        "lat": "-11.9320560",
        "lng": "-77.057942",
        "type": "MINIMARKET",
        "distrito": "COMAS",
        "provincia": "LIMA",
        "celda": "LIMA"
    },
    {
        "ciudad": "LIMA",
        "horario": "",
        "name": "VILCA HUALI YESSICA ALEYDA",
        "address": "CL LA CANTUTA MZ N LT 29",
        "lat": "-11.9136890",
        "lng": "-77.044572",
        "type": "MINIMARKET",
        "distrito": "COMAS",
        "provincia": "LIMA",
        "celda": "LIMA"
    },
    {
        "ciudad": "LIMA",
        "horario": "",
        "name": "LEON HUARINGA VIVIANA DIANA",
        "address": "AL LADO PARQUE LA FORTALEZA CALLE P",
        "lat": "-11.9372710",
        "lng": "-77.074859",
        "type": "MINIMARKET",
        "distrito": "LOS OLIVOS",
        "provincia": "LIMA",
        "celda": "LIMA"
    },
    {
        "ciudad": "LIMA",
        "horario": "",
        "name": "SOTO LAIME JUANA",
        "address": "MZ J4 LT64",
        "lat": "-11.9456750",
        "lng": "-77.077119",
        "type": "MINIMARKET",
        "distrito": "LOS OLIVOS",
        "provincia": "LIMA",
        "celda": "LIMA"
    },
    {
        "ciudad": "LIMA",
        "horario": "",
        "name": "INSTITUTO DE INNOVADORES S.A.C.",
        "address": "MZ C LT 15 URB SANTO DOMINGO",
        "lat": "-11.8660250",
        "lng": "-77.073831",
        "type": "MINIMARKET",
        "distrito": "PUENTE PIEDRA",
        "provincia": "LIMA",
        "celda": "LIMA"
    },
    {
        "ciudad": "LIMA",
        "horario": "",
        "name": "TEAM SOUL S.A.C.",
        "address": "ASOCIACION LOS ALGARROBOS MZ A",
        "lat": "-11.8533150",
        "lng": "-77.088291",
        "type": "MINIMARKET",
        "distrito": "PUENTE PIEDRA",
        "provincia": "LIMA",
        "celda": "LIMA"
    },
    {
        "ciudad": "LIMA",
        "horario": "",
        "name": "TIENDAS LAZO S.A.C.",
        "address": "PUENTE PIEDRA",
        "lat": "-11.8639700",
        "lng": "-77.076855",
        "type": "MINIMARKET",
        "distrito": "PUENTE PIEDRA",
        "provincia": "LIMA",
        "celda": "LIMA"
    },
    {
        "ciudad": "LIMA",
        "horario": "",
        "name": "ALCOCER TORIBIO YOLANDA GLADIS",
        "address": "MZ J LOTE 10 7 DE JUNIO",
        "lat": "-11.8487000",
        "lng": "-77.1266",
        "type": "MINIMARKET",
        "distrito": "VENTANILLA",
        "provincia": "LIMA",
        "celda": "LIMA"
    },
    {
        "ciudad": "LIMA",
        "horario": "",
        "name": "LIMAS VELASQUEZ LIZ",
        "address": "CA 22 AH VILLA LOS REYES SECT",
        "lat": "-11.8271800",
        "lng": "-77.121967",
        "type": "MINIMARKET",
        "distrito": "VENTANILLA",
        "provincia": "LIMA",
        "celda": "LIMA"
    },
    {
        "ciudad": "LIMA",
        "horario": "",
        "name": "MINIMARKET ANTOÑA E.I.R.L.",
        "address": "MZ C1 LT 14 A EX ZONA COMERCIAL",
        "lat": "-11.8694000",
        "lng": "-77.128",
        "type": "MINIMARKET",
        "distrito": "VENTANILLA",
        "provincia": "LIMA",
        "celda": "LIMA"
    },
    {
        "ciudad": "LIMA",
        "horario": "",
        "name": "TELLO SORIA MIQUEAS",
        "address": "MZ J LT 9 DEPORTE",
        "lat": "-11.8877000",
        "lng": "-77.1247",
        "type": "MINIMARKET",
        "distrito": "VENTANILLA",
        "provincia": "LIMA",
        "celda": "LIMA"
    },
    {
        "ciudad": "LIMA",
        "horario": "",
        "name": "TOKA BLACK S.A.C.",
        "address": "CALLE 16 MZ A LT 19 SEC 1",
        "lat": "-11.8289460",
        "lng": "-77.120056",
        "type": "MINIMARKET",
        "distrito": "VENTANILLA",
        "provincia": "LIMA",
        "celda": "LIMA"
    },
    {
        "ciudad": "LIMA",
        "horario": "",
        "name": "GOMEZ CARRASCO RICHARD LEONEL",
        "address": "AVALEJANDRO IGLESIAS N 107",
        "lat": "-12.16464",
        "lng": "-77.021835",
        "type": "MINIMARKET",
        "distrito": "CHORRILLOS",
        "provincia": "LIMA",
        "celda": "LIMA"
    },
    {
        "ciudad": "LIMA",
        "horario": "",
        "name": "VICTORIA ORTEGA GIOVANNA ESTHER",
        "address": "JR JHOAN MIRO MZA W LT 41 URB SANTALEONOR FRENTE AL",
        "lat": "-12.181631",
        "lng": "-77.01158",
        "type": "MINIMARKET",
        "distrito": "CHORRILLOS",
        "provincia": "LIMA",
        "celda": "LIMA"
    },
    {
        "ciudad": "LIMA",
        "horario": "",
        "name": "SUAREZ ROMERO VDA DE ZAVALETA REGIN",
        "address": "MZ Ñ LT 04 LOS CLAVELES",
        "lat": "-12.2946",
        "lng": "-76.8553",
        "type": "MINIMARKET",
        "distrito": "LURIN",
        "provincia": "LIMA",
        "celda": "LIMA"
    },
    {
        "ciudad": "LIMA",
        "horario": "",
        "name": "INVERSIONES ALTEZ & GRANADINO S.A.C",
        "address": "MZ D LT 08 AAHH LOS ARBOLITOS",
        "lat": "-12.186753",
        "lng": "-76.975453",
        "type": "MINIMARKET",
        "distrito": "SAN JUAN DE MIRAFLORES",
        "provincia": "LIMA",
        "celda": "LIMA"
    },
    {
        "ciudad": "LIMA",
        "horario": "",
        "name": "COLLANQUI AYAMAMANI ALDO URIEL",
        "address": "MZ I LT 9 ST 2 GP 10",
        "lat": "-12.212265",
        "lng": "-76.93625",
        "type": "MINIMARKET",
        "distrito": "VILLA EL SALVADOR",
        "provincia": "LIMA",
        "celda": "LIMA"
    },
    {
        "ciudad": "LIMA",
        "horario": "",
        "name": "CONTRERAS CHAVEZ SUSANA",
        "address": "MZ F LT 17 SCT 1 GRP 17",
        "lat": "-12.194577",
        "lng": "-76.951908",
        "type": "MINIMARKET",
        "distrito": "VILLA EL SALVADOR",
        "provincia": "LIMA",
        "celda": "LIMA"
    },
    {
        "ciudad": "LIMA",
        "horario": "",
        "name": "MEZA MALDONADO JOHN SMITH",
        "address": "MZ N LT 2 SECT 6 GPO 5 MINIMARKET",
        "lat": "-12.216189",
        "lng": "-76.947343",
        "type": "MINIMARKET",
        "distrito": "VILLA EL SALVADOR",
        "provincia": "LIMA",
        "celda": "LIMA"
    },
    {
        "ciudad": "LIMA",
        "horario": "",
        "name": "PRADO BAYGORREA GLORIA STEFANNI",
        "address": "MZ A LT 24B PS1 URB TILDA",
        "lat": "-12.02955",
        "lng": "-76.937633",
        "type": "MINIMARKET",
        "distrito": "ATE",
        "provincia": "LIMA",
        "celda": "LIMA"
    },
    {
        "ciudad": "LIMA",
        "horario": "",
        "name": "SANTIVANEZ SAJAMI SULMI SARA",
        "address": "CL PARIS 173 174 MZ J LT 25",
        "lat": "-12.046743",
        "lng": "-76.934532",
        "type": "MINIMARKET",
        "distrito": "ATE",
        "provincia": "LIMA",
        "celda": "LIMA"
    },
    {
        "ciudad": "LIMA",
        "horario": "",
        "name": "YDONE SANCHEZ ALEJANDRO",
        "address": "MZ H LT 04 CL LAS DALIAS URB VIRGENDEL CARME",
        "lat": "-12.036761",
        "lng": "-76.929767",
        "type": "MINIMARKET",
        "distrito": "ATE",
        "provincia": "LIMA",
        "celda": "LIMA"
    },
    {
        "ciudad": "LIMA",
        "horario": "",
        "name": "ALCAMIL GROUP SAC",
        "address": "CA CHAN CHAN MZ D LT 9 URB PORTALDADEL SOL",
        "lat": "-12.111693",
        "lng": "-76.939714",
        "type": "MINIMARKET",
        "distrito": "LA MOLINA",
        "provincia": "LIMA",
        "celda": "LIMA"
    },
    {
        "ciudad": "LIMA",
        "horario": "",
        "name": "DARSOL MARKETS E.I.R.L.",
        "address": "AV LOS FRESNOS MZ C 10 TL 03 PORTAD",
        "lat": "-12.112114",
        "lng": "-76.937214",
        "type": "MINIMARKET",
        "distrito": "LA MOLINA",
        "provincia": "LIMA",
        "celda": "LIMA"
    },
    {
        "ciudad": "LIMA",
        "horario": "",
        "name": "PALOMINO INGA HUGO HILARIO",
        "address": "CA RIO HUALLAGA 105 URB EL VALLE LAMOLINA",
        "lat": "-12.102529",
        "lng": "-76.943044",
        "type": "MINIMARKET",
        "distrito": "LA MOLINA",
        "provincia": "LIMA",
        "celda": "LIMA"
    },
    {
        "ciudad": "LIMA",
        "horario": "",
        "name": "HAPPY MARKET SAC",
        "address": "AV MIGUEL GRAU MZC LT2",
        "lat": "-12.1127",
        "lng": "-76.8733",
        "type": "MINIMARKET",
        "distrito": "PACHACAMAC",
        "provincia": "LIMA",
        "celda": "LIMA"
    },
    {
        "ciudad": "LIMA",
        "horario": "",
        "name": "HUAMAN PALOMINO FERMIN",
        "address": "AV LOS HEROES 856",
        "lat": "-12.15687",
        "lng": "-76.965328",
        "type": "MINIMARKET",
        "distrito": "SAN JUAN DE MIRAFLORES",
        "provincia": "LIMA",
        "celda": "LIMA"
    },
    {
        "ciudad": "LIMA",
        "horario": "",
        "name": "RAFAEL VASQUEZ LILIANA LIZET",
        "address": "AV CHANCAS 680 COOPERATIVA CHANCASDE ANDAHUAYLAS",
        "lat": "-12.037298",
        "lng": "-76.963149",
        "type": "MINIMARKET",
        "distrito": "SANTA ANITA",
        "provincia": "LIMA",
        "celda": "LIMA"
    },
    {
        "ciudad": "LIMA",
        "horario": "",
        "name": "YARIHUAMAN LUNA JOSE MIGUEL",
        "address": "AV GRAN CHIMU 125",
        "lat": "-12.043073",
        "lng": "-76.969713",
        "type": "MINIMARKET",
        "distrito": "SANTA ANITA",
        "provincia": "LIMA",
        "celda": "LIMA"
    },
    {
        "ciudad": "LIMA",
        "horario": "",
        "name": "ROMAN QUISPE MERY ROXANA",
        "address": "JORGE CASTRO HARRISON 471",
        "lat": "-12.082253",
        "lng": "-77.073892000000001",
        "type": "PANADERÍA",
        "distrito": "",
        "provincia": "LIMA",
        "celda": "LIMA"
    },
    {
        "ciudad": "LIMA",
        "horario": "",
        "name": "SALAZAR MEDICO KELYNN GELACIA",
        "address": "JR ECHENIQUE 401",
        "lat": "-12.092749",
        "lng": "-77.075687000000002",
        "type": "PANADERÍA",
        "distrito": "",
        "provincia": "LIMA",
        "celda": "LIMA"
    },
    {
        "ciudad": "LIMA",
        "horario": "",
        "name": "ELIAS ALVARADO MARIA ALEJANDRINA",
        "address": "AV JOSE LEGUIA MELENDEZ 1505",
        "lat": "-12.07526",
        "lng": "-77.069513000000001",
        "type": "PANADERÍA",
        "distrito": "",
        "provincia": "LIMA",
        "celda": "LIMA"
    },
    {
        "ciudad": "LIMA",
        "horario": "",
        "name": "COLONIA DIAZ EBER PAULINO",
        "address": "JR LAS PERLAS 2000 URB LAS VIOLETASSAN JUAN DE LURIGANCH",
        "lat": "-11.998353",
        "lng": "-77.0079999999999956",
        "type": "PANADERÍA",
        "distrito": "SAN JUAN DE LURIGANCHO",
        "provincia": "LIMA",
        "celda": "LIMA"
    },
    {
        "ciudad": "LIMA",
        "horario": "",
        "name": "DULCE DOLLCCETTOÂ´S S.A.C.",
        "address": "AV PROCERES DE LA INDEPENDENCIA 4251",
        "lat": "-11.959625",
        "lng": "-76.987774",
        "type": "PANADERÍA",
        "distrito": "SAN JUAN DE LURIGANCHO",
        "provincia": "LIMA",
        "celda": "LIMA"
    },
    {
        "ciudad": "LIMA",
        "horario": "",
        "name": "PILLACA CAMARGO RICARDO",
        "address": "JR LOS MIRABLES MZ D1 LT 7 ASOC POBLADORES DE JARDINES",
        "lat": "-12.017375",
        "lng": "-77.002974",
        "type": "PANADERÍA",
        "distrito": "SAN JUAN DE LURIGANCHO",
        "provincia": "LIMA",
        "celda": "LIMA"
    },
    {
        "ciudad": "LIMA",
        "horario": "",
        "name": "SALAS ADRIANO MAX ANTONIO",
        "address": "AV PROCERES DE LA INDEPENDENCIA 3398",
        "lat": "-11.975137",
        "lng": "-77.000201",
        "type": "PANADERÍA",
        "distrito": "SAN JUAN DE LURIGANCHO",
        "provincia": "LIMA",
        "celda": "LIMA"
    },
    {
        "ciudad": "LIMA",
        "horario": "",
        "name": "ALANIA RICALDI SUSAN DENISSE",
        "address": "JR. GARCIA NARANJO 380",
        "lat": "-12.062878",
        "lng": "-77.0292790",
        "type": "PANADERÍA",
        "distrito": "LA VICTORIA",
        "provincia": "LIMA",
        "celda": "LIMA"
    },
    {
        "ciudad": "LIMA",
        "horario": "",
        "name": "CASTRO RIVADENEYRA LISSETH",
        "address": "AV ISABEL LA CATOLICA NRO699",
        "lat": "-12.069743",
        "lng": "-77.0254000",
        "type": "PANADERÍA",
        "distrito": "LA VICTORIA",
        "provincia": "LIMA",
        "celda": "LIMA"
    },
    {
        "ciudad": "LIMA",
        "horario": "",
        "name": "CCALLO MAMANI YENNYFER",
        "address": "AV MANCO CAPAC 199",
        "lat": "-12.060389",
        "lng": "-77.0294380",
        "type": "PANADERÍA",
        "distrito": "LA VICTORIA",
        "provincia": "LIMA",
        "celda": "LIMA"
    },
    {
        "ciudad": "LIMA",
        "horario": "",
        "name": "SANCHEZ RONCAL NELLY",
        "address": "AV MANCO CAPAC 1013",
        "lat": "-12.070387",
        "lng": "-77.0282670",
        "type": "PANADERÍA",
        "distrito": "LA VICTORIA",
        "provincia": "LIMA",
        "celda": "LIMA"
    },
    {
        "ciudad": "LIMA",
        "horario": "",
        "name": "CORPORACION SABIDURIA FE AMOR EMPRE",
        "address": "AV MILITAR 1901",
        "lat": "-12.083153",
        "lng": "-77.0315590",
        "type": "PANADERÍA",
        "distrito": "LINCE",
        "provincia": "LIMA",
        "celda": "LIMA"
    },
    {
        "ciudad": "LIMA",
        "horario": "",
        "name": "PANADERIA PASTELERIA ANDYS SA",
        "address": "AV. SAN LUIS URB. SAN BORJA SAN BORJA 2645",
        "lat": "-12.101435",
        "lng": "-76.9944",
        "type": "PANADERÍA",
        "distrito": "",
        "provincia": "LIMA",
        "celda": "LIMA"
    },
    {
        "ciudad": "LIMA",
        "horario": "",
        "name": "ARELLANO ZUNIGA CHANEL BENET",
        "address": "JR. LOS DIAMANTES URB. BALCONCILLO448",
        "lat": "-12.078413",
        "lng": "-77.020428",
        "type": "PANADERÍA",
        "distrito": "",
        "provincia": "LIMA",
        "celda": "LIMA"
    },
    {
        "ciudad": "LIMA",
        "horario": "",
        "name": "GUTIERREZ PILLACA EVA LUZ",
        "address": "JR. DIEGO DE ALMAGRO 201",
        "lat": "-12.083392",
        "lng": "-77.058765",
        "type": "PANADERÍA",
        "distrito": "",
        "provincia": "LIMA",
        "celda": "LIMA"
    },
    {
        "ciudad": "LIMA",
        "horario": "",
        "name": "ANDIA OBREGON JUAN CARLOS",
        "address": "#REF!",
        "lat": "-12.11583",
        "lng": "-77.035522999999998",
        "type": "PANADERÍA",
        "distrito": "",
        "provincia": "LIMA",
        "celda": "LIMA"
    },
    {
        "ciudad": "LIMA",
        "horario": "",
        "name": "PENA JOSE SAAVEDRA",
        "address": "#REF!",
        "lat": "-12.118616",
        "lng": "-77.020329000000004",
        "type": "PANADERÍA",
        "distrito": "",
        "provincia": "LIMA",
        "celda": "LIMA"
    },
    {
        "ciudad": "LIMA",
        "horario": "",
        "name": "COQUILL LLACUA DENIS",
        "address": "#REF!",
        "lat": "-12.121755",
        "lng": "-76.992423",
        "type": "PANADERÍA",
        "distrito": "",
        "provincia": "LIMA",
        "celda": "LIMA"
    },
    {
        "ciudad": "LIMA",
        "horario": "",
        "name": "ASENCIO ANAYA JORGE ANGEL",
        "address": "MZ I LT 1 NUEVA JERUSALEN 1 ET",
        "lat": "-11.8295000",
        "lng": "-77.0719",
        "type": "PANADERÍA",
        "distrito": "CARABAYLLO",
        "provincia": "LIMA",
        "celda": "LIMA"
    },
    {
        "ciudad": "LIMA",
        "horario": "",
        "name": "ECHEVARRIA SALAZAR NEDILGA GOLVINA",
        "address": "AV JOSE SACO MZ B LT 1",
        "lat": "-11.8529000",
        "lng": "-77.0352",
        "type": "PANADERÍA",
        "distrito": "CARABAYLLO",
        "provincia": "LIMA",
        "celda": "LIMA"
    },
    {
        "ciudad": "LIMA",
        "horario": "",
        "name": "GODOY BOZA SILVIA",
        "address": "MZ F LT 2 URB LAS FLORES DE CARABAYLLO",
        "lat": "-11.8558000",
        "lng": "-77.0399",
        "type": "PANADERÍA",
        "distrito": "CARABAYLLO",
        "provincia": "LIMA",
        "celda": "LIMA"
    },
    {
        "ciudad": "LIMA",
        "horario": "",
        "name": "MORENO MONTENEGRO JENNY",
        "address": "ASOC. JESUS DEL NORTE MZ A LT 4",
        "lat": "-11.8637000",
        "lng": "-77.0545",
        "type": "PANADERÍA",
        "distrito": "CARABAYLLO",
        "provincia": "LIMA",
        "celda": "LIMA"
    },
    {
        "ciudad": "LIMA",
        "horario": "",
        "name": "SOLANO PORTILLA KAREN ELIZABETH",
        "address": "MZ P LT 3 AV 1 PROGRAMA DE VIVIANDA SAN JOSE",
        "lat": "-11.8308000",
        "lng": "-77.0854",
        "type": "PANADERÍA",
        "distrito": "CARABAYLLO",
        "provincia": "LIMA",
        "celda": "LIMA"
    },
    {
        "ciudad": "LIMA",
        "horario": "",
        "name": "VILLAFANA CHIMOY MARCO ANTONIO",
        "address": "CA FLORESTA MZ L1 LT 1",
        "lat": "-11.8606000",
        "lng": "-77.0458",
        "type": "PANADERÍA",
        "distrito": "CARABAYLLO",
        "provincia": "LIMA",
        "celda": "LIMA"
    },
    {
        "ciudad": "LIMA",
        "horario": "",
        "name": "ASTOLA JIMENEZ ILDA ROGELIA",
        "address": "JR FELIPE MENDIZABAL NRO 103",
        "lat": "-11.8983230",
        "lng": "-77.038893",
        "type": "PANADERÍA",
        "distrito": "COMAS",
        "provincia": "LIMA",
        "celda": "LIMA"
    },
    {
        "ciudad": "LIMA",
        "horario": "",
        "name": "BENAVIDES VALLADARES SADITH EDDA",
        "address": "CL LOS MEMBRILLOS MZ E 1",
        "lat": "-11.9072040",
        "lng": "-77.045405",
        "type": "PANADERÍA",
        "distrito": "COMAS",
        "provincia": "LIMA",
        "celda": "LIMA"
    },
    {
        "ciudad": "LIMA",
        "horario": "",
        "name": "CATALAN BERNABE JOSE LUIS",
        "address": "AV RETABLO MZ M1 LT 42",
        "lat": "-11.9225330",
        "lng": "-77.054181",
        "type": "PANADERÍA",
        "distrito": "COMAS",
        "provincia": "LIMA",
        "celda": "LIMA"
    },
    {
        "ciudad": "LIMA",
        "horario": "",
        "name": "DULCE DENISSE R SAC",
        "address": "AV GUILLERNO DE LA FUENTE 504",
        "lat": "-11.9438800",
        "lng": "-77.058359",
        "type": "PANADERÍA",
        "distrito": "COMAS",
        "provincia": "LIMA",
        "celda": "LIMA"
    },
    {
        "ciudad": "LIMA",
        "horario": "",
        "name": "ESPINOZA ANDRADE EDIM MELIZA",
        "address": "AV EL RETABLO 1656",
        "lat": "-11.9191190",
        "lng": "-77.052884",
        "type": "PANADERÍA",
        "distrito": "COMAS",
        "provincia": "LIMA",
        "celda": "LIMA"
    },
    {
        "ciudad": "LIMA",
        "horario": "",
        "name": "HUAVIL ROJAS IRAIDA ESTHER",
        "address": "AV GUILLERMO DE LA FUENTE 407",
        "lat": "-11.9424970",
        "lng": "-77.059788",
        "type": "PANADERÍA",
        "distrito": "COMAS",
        "provincia": "LIMA",
        "celda": "LIMA"
    },
    {
        "ciudad": "LIMA",
        "horario": "",
        "name": "LEAÑO SOLIS DORILA ESTHER",
        "address": "AV SANGARARA MZ A LT 11",
        "lat": "-11.9191760",
        "lng": "-77.050763",
        "type": "PANADERÍA",
        "distrito": "COMAS",
        "provincia": "LIMA",
        "celda": "LIMA"
    },
    {
        "ciudad": "LIMA",
        "horario": "",
        "name": "MARTEL RIVERA EDGAR GUIDO",
        "address": "AV UNIVERSITARIA 5999",
        "lat": "-11.9524330",
        "lng": "-77.060378",
        "type": "PANADERÍA",
        "distrito": "COMAS",
        "provincia": "LIMA",
        "celda": "LIMA"
    },
    {
        "ciudad": "LIMA",
        "horario": "",
        "name": "MUÑOZ MORENO CELIA ABELIA",
        "address": "AV MICAELA BASTIDAS 892",
        "lat": "-11.9286690",
        "lng": "-77.055758",
        "type": "PANADERÍA",
        "distrito": "COMAS",
        "provincia": "LIMA",
        "celda": "LIMA"
    },
    {
        "ciudad": "LIMA",
        "horario": "",
        "name": "NAVEZ CASANA CARMEN",
        "address": "CL LOS FRUTALES 111",
        "lat": "-11.9113320",
        "lng": "-77.046727",
        "type": "PANADERÍA",
        "distrito": "COMAS",
        "provincia": "LIMA",
        "celda": "LIMA"
    },
    {
        "ciudad": "LIMA",
        "horario": "",
        "name": "ROJAS VENTOCILLA JUNIOR ARNOLD",
        "address": "AV UNIVERSITARIA NRO 5358",
        "lat": "-11.9605600",
        "lng": "-77.061095",
        "type": "PANADERÍA",
        "distrito": "COMAS",
        "provincia": "LIMA",
        "celda": "LIMA"
    },
    {
        "ciudad": "LIMA",
        "horario": "",
        "name": "SANCHEZ MEZA ZOSIMO",
        "address": "AV SAN FELIPE 818",
        "lat": "-11.9001040",
        "lng": "-77.04087",
        "type": "PANADERÍA",
        "distrito": "COMAS",
        "provincia": "LIMA",
        "celda": "LIMA"
    },
    {
        "ciudad": "LIMA",
        "horario": "",
        "name": "TORRES HUARCAYA JORGE CESAR",
        "address": "AV RETABLO 2095",
        "lat": "-11.9140110",
        "lng": "-77.050059",
        "type": "PANADERÍA",
        "distrito": "COMAS",
        "provincia": "LIMA",
        "celda": "LIMA"
    },
    {
        "ciudad": "LIMA",
        "horario": "",
        "name": "VIZCAINO CUEVA TALIA JENIFER",
        "address": "AV CARABAYLLO 571",
        "lat": "-11.9578510",
        "lng": "-77.058533",
        "type": "PANADERÍA",
        "distrito": "COMAS",
        "provincia": "LIMA",
        "celda": "LIMA"
    },
    {
        "ciudad": "LIMA",
        "horario": "",
        "name": "BURGOS MONTEZA DOMITILA",
        "address": "AV LA CORDIALIDAD 7869",
        "lat": "-11.9389040",
        "lng": "-77.077836",
        "type": "PANADERÍA",
        "distrito": "LOS OLIVOS",
        "provincia": "LIMA",
        "celda": "LIMA"
    },
    {
        "ciudad": "LIMA",
        "horario": "",
        "name": "GILIO HUERTA FIDEL",
        "address": "JR VERACIDAD 7898",
        "lat": "-11.9383290",
        "lng": "-77.07533",
        "type": "PANADERÍA",
        "distrito": "LOS OLIVOS",
        "provincia": "LIMA",
        "celda": "LIMA"
    },
    {
        "ciudad": "LIMA",
        "horario": "",
        "name": "VALERIO MENDOZA RONALD FREDY",
        "address": "AV UNIVERSITARIA 9163",
        "lat": "-11.9634100",
        "lng": "-77.071724",
        "type": "PANADERÍA",
        "distrito": "LOS OLIVOS",
        "provincia": "LIMA",
        "celda": "LIMA"
    },
    {
        "ciudad": "LIMA",
        "horario": "",
        "name": "INVERSIONES LUCIANA DASHA S.A.C.",
        "address": "AV PUENTE PIEDRA 199",
        "lat": "-11.8648970",
        "lng": "-77.074939",
        "type": "PANADERÍA",
        "distrito": "PUENTE PIEDRA",
        "provincia": "LIMA",
        "celda": "LIMA"
    },
    {
        "ciudad": "LIMA",
        "horario": "",
        "name": "PEREZ HUAMAN DINA",
        "address": "CALLE PARAISO MZ B LT 2 LIBERTADORES",
        "lat": "-11.8243240",
        "lng": "-77.122671",
        "type": "PANADERÍA",
        "distrito": "PUENTE PIEDRA",
        "provincia": "LIMA",
        "celda": "LIMA"
    },
    {
        "ciudad": "LIMA",
        "horario": "",
        "name": "QUIJANO BOJORQUEZ REYNA ISABEL",
        "address": "PSJE ARICA LA GRAMA MZ B 18",
        "lat": "-11.8539410",
        "lng": "-77.089308",
        "type": "PANADERÍA",
        "distrito": "PUENTE PIEDRA",
        "provincia": "LIMA",
        "celda": "LIMA"
    },
    {
        "ciudad": "LIMA",
        "horario": "",
        "name": "ASCA MARQUEZ JILMAR RAFAEL",
        "address": "URB ANGAMOS MZ E LT 30",
        "lat": "-11.8980000",
        "lng": "-77.1281",
        "type": "PANADERÍA",
        "distrito": "VENTANILLA",
        "provincia": "LIMA",
        "celda": "LIMA"
    },
    {
        "ciudad": "LIMA",
        "horario": "",
        "name": "CHOLAN QUISPE JUAN ANTENOR",
        "address": "MZ H 2",
        "lat": "-11.8662000",
        "lng": "-77.1292",
        "type": "PANADERÍA",
        "distrito": "VENTANILLA",
        "provincia": "LIMA",
        "celda": "LIMA"
    },
    {
        "ciudad": "LIMA",
        "horario": "",
        "name": "HINOSTROZA CONEJO ROSELIA OLINDA",
        "address": "AH PACHACUTEC MZ I LT 16",
        "lat": "-11.8325000",
        "lng": "-77.1448",
        "type": "PANADERÍA",
        "distrito": "VENTANILLA",
        "provincia": "LIMA",
        "celda": "LIMA"
    },
    {
        "ciudad": "LIMA",
        "horario": "",
        "name": "MATOS SALCEDO JON LENON",
        "address": "MZ K9 LT 7",
        "lat": "-11.8922000",
        "lng": "-77.1269",
        "type": "PANADERÍA",
        "distrito": "VENTANILLA",
        "provincia": "LIMA",
        "celda": "LIMA"
    },
    {
        "ciudad": "LIMA",
        "horario": "",
        "name": "TIRADO JIMENEZ MARIA MARIBEL",
        "address": "MZ I1 LT 4",
        "lat": "-11.8283000",
        "lng": "-77.1572",
        "type": "PANADERÍA",
        "distrito": "VENTANILLA",
        "provincia": "LIMA",
        "celda": "LIMA"
    },
    {
        "ciudad": "LIMA",
        "horario": "",
        "name": "UCHUYPOMA ARECHE MELQUESIDEC",
        "address": "AH ANDRES A CACERES MZ C1 13",
        "lat": "-11.8706000",
        "lng": "-77.1286",
        "type": "PANADERÍA",
        "distrito": "VENTANILLA",
        "provincia": "LIMA",
        "celda": "LIMA"
    },
    {
        "ciudad": "LIMA",
        "horario": "",
        "name": "VARGAS MOGOLLON LUISA MARIA",
        "address": "MZ F LT 4 SECTOR C",
        "lat": "-11.8313000",
        "lng": "-77.1487",
        "type": "PANADERÍA",
        "distrito": "VENTANILLA",
        "provincia": "LIMA",
        "celda": "LIMA"
    },
    {
        "ciudad": "LIMA",
        "horario": "",
        "name": "CARRERO MONTENEGRO YOLANDA",
        "address": "AV JOSE ALAVALLE 130",
        "lat": "-12.194416",
        "lng": "-77.003294",
        "type": "PANADERÍA",
        "distrito": "CHORRILLOS",
        "provincia": "LIMA",
        "celda": "LIMA"
    },
    {
        "ciudad": "LIMA",
        "horario": "",
        "name": "CRUZ SIMON MELECIO",
        "address": "AV ARIOSTO MATELINI MZ E LT LOTE 1VULLA VENTURO",
        "lat": "-12.182258",
        "lng": "-77.013199",
        "type": "PANADERÍA",
        "distrito": "CHORRILLOS",
        "provincia": "LIMA",
        "celda": "LIMA"
    },
    {
        "ciudad": "LIMA",
        "horario": "",
        "name": "LORENZO ALVINO EUSEBIA",
        "address": "AV CARLOS MELLET MZA F1 LT 2 URB SAN JUDAS TADEO CHO",
        "lat": "-12.17515",
        "lng": "-77.016526",
        "type": "PANADERÍA",
        "distrito": "CHORRILLOS",
        "provincia": "LIMA",
        "celda": "LIMA"
    },
    {
        "ciudad": "LIMA",
        "horario": "",
        "name": "MARQUEZ MACHA FLORITA",
        "address": "AVALIPIO PONCE 251 CHORRILLOS CHORRILLOS",
        "lat": "-12.173637",
        "lng": "-76.993238",
        "type": "PANADERÍA",
        "distrito": "CHORRILLOS",
        "provincia": "LIMA",
        "celda": "LIMA"
    },
    {
        "ciudad": "LIMA",
        "horario": "",
        "name": "ÑAHUINLLA RAMIREZ NILDA SENOBIA",
        "address": "AV EL SOL MZA LT15B LA CAMPIÑA CHORRILLOS",
        "lat": "-12.17441",
        "lng": "-77.000423",
        "type": "PANADERÍA",
        "distrito": "CHORRILLOS",
        "provincia": "LIMA",
        "celda": "LIMA"
    },
    {
        "ciudad": "LIMA",
        "horario": "",
        "name": "PAREJA QUISPE TEODOSIA",
        "address": "AVBUENOS AIRES DE VILLA MZS LT17 CHORRILLOS",
        "lat": "-12.186987",
        "lng": "-77.004736",
        "type": "PANADERÍA",
        "distrito": "CHORRILLOS",
        "provincia": "LIMA",
        "celda": "LIMA"
    },
    {
        "ciudad": "LIMA",
        "horario": "",
        "name": "GALVAN JOHNDRY ALBERTO",
        "address": "JR BOLIVAR 347",
        "lat": "-12.2725",
        "lng": "-76.8679",
        "type": "PANADERÍA",
        "distrito": "LURIN",
        "provincia": "LIMA",
        "celda": "LIMA"
    },
    {
        "ciudad": "LIMA",
        "horario": "",
        "name": "HUAVIL REYES EUMISA ELIA",
        "address": "JIR HUASCAR 199 LURIN",
        "lat": "-12.2751",
        "lng": "-76.8697",
        "type": "PANADERÍA",
        "distrito": "LURIN",
        "provincia": "LIMA",
        "celda": "LIMA"
    },
    {
        "ciudad": "LIMA",
        "horario": "",
        "name": "PILLACA LLOCCLLA HENRY",
        "address": "MZ 11 LT 7 NUEVO LURIN KM 40 PARQUELAS MONEDAS",
        "lat": "-12.2924",
        "lng": "-76.853",
        "type": "PANADERÍA",
        "distrito": "LURIN",
        "provincia": "LIMA",
        "celda": "LIMA"
    },
    {
        "ciudad": "LIMA",
        "horario": "",
        "name": "AMANCIO ESCUDERO ALEJANDRINA",
        "address": "M G L 15SECTOR 2 GPO 10",
        "lat": "-12.211828",
        "lng": "-76.937409",
        "type": "PANADERÍA",
        "distrito": "VILLA EL SALVADOR",
        "provincia": "LIMA",
        "celda": "LIMA"
    },
    {
        "ciudad": "LIMA",
        "horario": "",
        "name": "CAMASCA CAYLLAHUA SULPICIA NERI",
        "address": "MZ M LOTE 14 GRUPO9 SECTOR 2",
        "lat": "-12.209408",
        "lng": "-76.938693",
        "type": "PANADERÍA",
        "distrito": "VILLA EL SALVADOR",
        "provincia": "LIMA",
        "celda": "LIMA"
    },
    {
        "ciudad": "LIMA",
        "horario": "",
        "name": "CCOMPE VICTORINO VILMA",
        "address": "MZ P LT 5 SECT 2 GPO 17",
        "lat": "-12.205323",
        "lng": "-76.946037",
        "type": "PANADERÍA",
        "distrito": "VILLA EL SALVADOR",
        "provincia": "LIMA",
        "celda": "LIMA"
    },
    {
        "ciudad": "LIMA",
        "horario": "",
        "name": "CORPORACION FAMILIAR BARREDA S.A.C.",
        "address": "SECTOR 6 GRUPO 2 MZ M LOTE 7",
        "lat": "-12.208994",
        "lng": "-76.95249",
        "type": "PANADERÍA",
        "distrito": "VILLA EL SALVADOR",
        "provincia": "LIMA",
        "celda": "LIMA"
    },